[
  {
    "id": "2179",
    "name": "Abu Dhabi International Airport",
    "city": "Abu Dhabi",
    "country": "United Arab Emirates",
    "iata": "AUH",
    "icao": "OMAA",
    "lat": 24.433000564575195,
    "lon": 54.651100158691406,
    "altitudeFt": 88,
    "tzName": "Asia/Dubai",
    "routeCount": 68,
    "searchText": "abu dhabi international airport abu dhabi united arab emirates auh omaa"
  },
  {
    "id": "1107",
    "name": "Addis Ababa Bole International Airport",
    "city": "Addis Ababa",
    "country": "Ethiopia",
    "iata": "ADD",
    "icao": "HAAB",
    "lat": 8.97789001465,
    "lon": 38.7993011475,
    "altitudeFt": 7630,
    "tzName": "Africa/Addis_Ababa",
    "routeCount": 31,
    "searchText": "addis ababa bole international airport addis ababa ethiopia add haab"
  },
  {
    "id": "1706",
    "name": "Adnan Menderes International Airport",
    "city": "Izmir",
    "country": "Turkey",
    "iata": "ADB",
    "icao": "LTBJ",
    "lat": 38.292400360100004,
    "lon": 27.156999588,
    "altitudeFt": 412,
    "tzName": "Europe/Istanbul",
    "routeCount": 31,
    "searchText": "adnan menderes international airport izmir turkey adb ltbj"
  },
  {
    "id": "1229",
    "name": "Adolfo Suárez Madrid–Barajas Airport",
    "city": "Madrid",
    "country": "Spain",
    "iata": "MAD",
    "icao": "LEMD",
    "lat": 40.471926,
    "lon": -3.56264,
    "altitudeFt": 1998,
    "tzName": "Europe/Madrid",
    "routeCount": 121,
    "searchText": "adolfo suárez madrid–barajas airport madrid spain mad lemd"
  },
  {
    "id": "8076",
    "name": "Al Maktoum International Airport",
    "city": "Dubai",
    "country": "United Arab Emirates",
    "iata": "DWC",
    "icao": "OMDW",
    "lat": 24.896356,
    "lon": 55.161389,
    "altitudeFt": 114,
    "tzName": "Asia/Dubai",
    "routeCount": 22,
    "searchText": "al maktoum international airport dubai united arab emirates dwc omdw"
  },
  {
    "id": "2207",
    "name": "Alama Iqbal International Airport",
    "city": "Lahore",
    "country": "Pakistan",
    "iata": "LHE",
    "icao": "OPLA",
    "lat": 31.5216007232666,
    "lon": 74.40360260009766,
    "altitudeFt": 712,
    "tzName": "Asia/Karachi",
    "routeCount": 27,
    "searchText": "alama iqbal international airport lahore pakistan lhe opla"
  },
  {
    "id": "1517",
    "name": "Alghero-Fertilia Airport",
    "city": "Alghero",
    "country": "Italy",
    "iata": "AHO",
    "icao": "LIEA",
    "lat": 40.632099,
    "lon": 8.29077,
    "altitudeFt": 87,
    "tzName": "Europe/Rome",
    "routeCount": 22,
    "searchText": "alghero-fertilia airport alghero italy aho liea"
  },
  {
    "id": "1212",
    "name": "Alicante International Airport",
    "city": "Alicante",
    "country": "Spain",
    "iata": "ALC",
    "icao": "LEAL",
    "lat": 38.28219985961914,
    "lon": -0.5581560134887695,
    "altitudeFt": 142,
    "tzName": "Europe/Madrid",
    "routeCount": 62,
    "searchText": "alicante international airport alicante spain alc leal"
  },
  {
    "id": "2908",
    "name": "Almaty Airport",
    "city": "Alma-ata",
    "country": "Kazakhstan",
    "iata": "ALA",
    "icao": "UAAA",
    "lat": 43.35210037231445,
    "lon": 77.04049682617188,
    "altitudeFt": 2234,
    "tzName": "Asia/Qyzylorda",
    "routeCount": 27,
    "searchText": "almaty airport alma-ata kazakhstan ala uaaa"
  },
  {
    "id": "580",
    "name": "Amsterdam Airport Schiphol",
    "city": "Amsterdam",
    "country": "Netherlands",
    "iata": "AMS",
    "icao": "EHAM",
    "lat": 52.308601,
    "lon": 4.76389,
    "altitudeFt": -11,
    "tzName": "Europe/Amsterdam",
    "routeCount": 174,
    "searchText": "amsterdam airport schiphol amsterdam netherlands ams eham"
  },
  {
    "id": "1688",
    "name": "Antalya International Airport",
    "city": "Antalya",
    "country": "Turkey",
    "iata": "AYT",
    "icao": "LTAI",
    "lat": 36.898701,
    "lon": 30.800501,
    "altitudeFt": 177,
    "tzName": "Europe/Istanbul",
    "routeCount": 44,
    "searchText": "antalya international airport antalya turkey ayt ltai"
  },
  {
    "id": "2910",
    "name": "Astana International Airport",
    "city": "Tselinograd",
    "country": "Kazakhstan",
    "iata": "TSE",
    "icao": "UACC",
    "lat": 51.02220153808594,
    "lon": 71.46690368652344,
    "altitudeFt": 1165,
    "tzName": "Asia/Qyzylorda",
    "routeCount": 19,
    "searchText": "astana international airport tselinograd kazakhstan tse uacc"
  },
  {
    "id": "1701",
    "name": "Atatürk International Airport",
    "city": "Istanbul",
    "country": "Turkey",
    "iata": "ISL",
    "icao": "LTBA",
    "lat": 40.976898,
    "lon": 28.8146,
    "altitudeFt": 163,
    "tzName": "Europe/Istanbul",
    "routeCount": 124,
    "searchText": "atatürk international airport istanbul turkey isl ltba"
  },
  {
    "id": "2006",
    "name": "Auckland International Airport",
    "city": "Auckland",
    "country": "New Zealand",
    "iata": "AKL",
    "icao": "NZAA",
    "lat": -37.0080986023,
    "lon": 174.79200744599999,
    "altitudeFt": 23,
    "tzName": "Pacific/Auckland",
    "routeCount": 19,
    "searchText": "auckland international airport auckland new zealand akl nzaa"
  },
  {
    "id": "3673",
    "name": "Austin Bergstrom International Airport",
    "city": "Austin",
    "country": "United States",
    "iata": "AUS",
    "icao": "KAUS",
    "lat": 30.194499969482425,
    "lon": -97.6698989868164,
    "altitudeFt": 542,
    "tzName": "America/Chicago",
    "routeCount": 36,
    "searchText": "austin bergstrom international airport austin united states aus kaus"
  },
  {
    "id": "2057",
    "name": "Bahrain International Airport",
    "city": "Bahrain",
    "country": "Bahrain",
    "iata": "BAH",
    "icao": "OBBI",
    "lat": 26.27079963684082,
    "lon": 50.63359832763672,
    "altitudeFt": 6,
    "tzName": "Asia/Bahrain",
    "routeCount": 31,
    "searchText": "bahrain international airport bahrain bahrain bah obbi"
  },
  {
    "id": "6345",
    "name": "Baita International Airport",
    "city": "Hohhot",
    "country": "China",
    "iata": "HET",
    "icao": "ZBHH",
    "lat": 40.851397999999996,
    "lon": 111.82399699999999,
    "altitudeFt": 3556,
    "tzName": "Asia/Shanghai",
    "routeCount": 25,
    "searchText": "baita international airport hohhot china het zbhh"
  },
  {
    "id": "3849",
    "name": "Baltimore/Washington International Thurgood Marshall Airport",
    "city": "Baltimore",
    "country": "United States",
    "iata": "BWI",
    "icao": "KBWI",
    "lat": 39.1754,
    "lon": -76.668297,
    "altitudeFt": 146,
    "tzName": "America/New_York",
    "routeCount": 46,
    "searchText": "baltimore/washington international thurgood marshall airport baltimore united states bwi kbwi"
  },
  {
    "id": "3024",
    "name": "Bandaranaike International Colombo Airport",
    "city": "Colombo",
    "country": "Sri Lanka",
    "iata": "CMB",
    "icao": "VCBI",
    "lat": 7.180759906768799,
    "lon": 79.88410186767578,
    "altitudeFt": 30,
    "tzName": "Asia/Colombo",
    "routeCount": 31,
    "searchText": "bandaranaike international colombo airport colombo sri lanka cmb vcbi"
  },
  {
    "id": "1218",
    "name": "Barcelona International Airport",
    "city": "Barcelona",
    "country": "Spain",
    "iata": "BCN",
    "icao": "LEBL",
    "lat": 41.2971,
    "lon": 2.0784599999999998,
    "altitudeFt": 12,
    "tzName": "Europe/Madrid",
    "routeCount": 121,
    "searchText": "barcelona international airport barcelona spain bcn lebl"
  },
  {
    "id": "1501",
    "name": "Bari Karol Wojtyła Airport",
    "city": "Bari",
    "country": "Italy",
    "iata": "BRI",
    "icao": "LIBD",
    "lat": 41.138901000000004,
    "lon": 16.760599,
    "altitudeFt": 177,
    "tzName": "Europe/Rome",
    "routeCount": 33,
    "searchText": "bari karol wojtyła airport bari italy bri libd"
  },
  {
    "id": "3364",
    "name": "Beijing Capital International Airport",
    "city": "Beijing",
    "country": "China",
    "iata": "PEK",
    "icao": "ZBAA",
    "lat": 40.0801010131836,
    "lon": 116.58499908447266,
    "altitudeFt": 116,
    "tzName": "Asia/Shanghai",
    "routeCount": 111,
    "searchText": "beijing capital international airport beijing china pek zbaa"
  },
  {
    "id": "6341",
    "name": "Beijing Nanyuan Airport",
    "city": "Beijing",
    "country": "China",
    "iata": "NAY",
    "icao": "ZBNY",
    "lat": 39.782798767089844,
    "lon": 116.38800048828124,
    "altitudeFt": 0,
    "tzName": "Asia/Shanghai",
    "routeCount": 12,
    "searchText": "beijing nanyuan airport beijing china nay zbny"
  },
  {
    "id": "2177",
    "name": "Beirut Rafic Hariri International Airport",
    "city": "Beirut",
    "country": "Lebanon",
    "iata": "BEY",
    "icao": "OLBA",
    "lat": 33.820899963378906,
    "lon": 35.488399505615234,
    "altitudeFt": 87,
    "tzName": "Asia/Beirut",
    "routeCount": 38,
    "searchText": "beirut rafic hariri international airport beirut lebanon bey olba"
  },
  {
    "id": "1739",
    "name": "Belgrade Nikola Tesla Airport",
    "city": "Belgrade",
    "country": "Serbia",
    "iata": "BEG",
    "icao": "LYBE",
    "lat": 44.8184013367,
    "lon": 20.3090991974,
    "altitudeFt": 335,
    "tzName": "Europe/Belgrade",
    "routeCount": 40,
    "searchText": "belgrade nikola tesla airport belgrade serbia beg lybe"
  },
  {
    "id": "1590",
    "name": "Ben Gurion International Airport",
    "city": "Tel-aviv",
    "country": "Israel",
    "iata": "TLV",
    "icao": "LLBG",
    "lat": 32.011398315429695,
    "lon": 34.88669967651367,
    "altitudeFt": 135,
    "tzName": "Asia/Jerusalem",
    "routeCount": 67,
    "searchText": "ben gurion international airport tel-aviv israel tlv llbg"
  },
  {
    "id": "2223",
    "name": "Benazir Bhutto International Airport",
    "city": "Islamabad",
    "country": "Pakistan",
    "iata": null,
    "icao": "OPRN",
    "lat": 33.616699,
    "lon": 73.099197,
    "altitudeFt": 1668,
    "tzName": "Asia/Karachi",
    "routeCount": 27,
    "searchText": "benazir bhutto international airport islamabad pakistan  oprn"
  },
  {
    "id": "636",
    "name": "Bergen Airport Flesland",
    "city": "Bergen",
    "country": "Norway",
    "iata": "BGO",
    "icao": "ENBR",
    "lat": 60.29339981,
    "lon": 5.218140125,
    "altitudeFt": 170,
    "tzName": "Europe/Oslo",
    "routeCount": 33,
    "searchText": "bergen airport flesland bergen norway bgo enbr"
  },
  {
    "id": "337",
    "name": "Berlin-Schönefeld Airport",
    "city": "Berlin",
    "country": "Germany",
    "iata": "SXF",
    "icao": "EDDB",
    "lat": 52.380001,
    "lon": 13.5225,
    "altitudeFt": 157,
    "tzName": "Europe/Berlin",
    "routeCount": 60,
    "searchText": "berlin-schönefeld airport berlin germany sxf eddb"
  },
  {
    "id": "351",
    "name": "Berlin-Tegel Airport",
    "city": "Berlin",
    "country": "Germany",
    "iata": "TXL",
    "icao": "EDDT",
    "lat": 52.5597,
    "lon": 13.2877,
    "altitudeFt": 122,
    "tzName": "Europe/Berlin",
    "routeCount": 86,
    "searchText": "berlin-tegel airport berlin germany txl eddt"
  },
  {
    "id": "1216",
    "name": "Bilbao Airport",
    "city": "Bilbao",
    "country": "Spain",
    "iata": "BIO",
    "icao": "LEBB",
    "lat": 43.30110168457031,
    "lon": -2.9106099605560303,
    "altitudeFt": 138,
    "tzName": "Europe/Madrid",
    "routeCount": 31,
    "searchText": "bilbao airport bilbao spain bio lebb"
  },
  {
    "id": "608",
    "name": "Billund Airport",
    "city": "Billund",
    "country": "Denmark",
    "iata": "BLL",
    "icao": "EKBI",
    "lat": 55.7402992249,
    "lon": 9.15178012848,
    "altitudeFt": 247,
    "tzName": "Europe/Copenhagen",
    "routeCount": 34,
    "searchText": "billund airport billund denmark bll ekbi"
  },
  {
    "id": "469",
    "name": "Birmingham International Airport",
    "city": "Birmingham",
    "country": "United Kingdom",
    "iata": "BHX",
    "icao": "EGBB",
    "lat": 52.4538993835,
    "lon": -1.7480299472799998,
    "altitudeFt": 327,
    "tzName": "Europe/London",
    "routeCount": 53,
    "searchText": "birmingham international airport birmingham united kingdom bhx egbb"
  },
  {
    "id": "1538",
    "name": "Bologna Guglielmo Marconi Airport",
    "city": "Bologna",
    "country": "Italy",
    "iata": "BLQ",
    "icao": "LIPE",
    "lat": 44.5354,
    "lon": 11.2887,
    "altitudeFt": 123,
    "tzName": "Europe/Rome",
    "routeCount": 54,
    "searchText": "bologna guglielmo marconi airport bologna italy blq lipe"
  },
  {
    "id": "1264",
    "name": "Bordeaux-Mérignac Airport",
    "city": "Bordeaux",
    "country": "France",
    "iata": "BOD",
    "icao": "LFBD",
    "lat": 44.8283004761,
    "lon": -0.7155560255050001,
    "altitudeFt": 162,
    "tzName": "Europe/Paris",
    "routeCount": 41,
    "searchText": "bordeaux-mérignac airport bordeaux france bod lfbd"
  },
  {
    "id": "2939",
    "name": "Boryspil International Airport",
    "city": "Kiev",
    "country": "Ukraine",
    "iata": "KBP",
    "icao": "UKBB",
    "lat": 50.34500122070313,
    "lon": 30.89469909667969,
    "altitudeFt": 427,
    "tzName": "Europe/Kiev",
    "routeCount": 49,
    "searchText": "boryspil international airport kiev ukraine kbp ukbb"
  },
  {
    "id": "353",
    "name": "Bremen Airport",
    "city": "Bremen",
    "country": "Germany",
    "iata": "BRE",
    "icao": "EDDW",
    "lat": 53.0475006104,
    "lon": 8.78666973114,
    "altitudeFt": 14,
    "tzName": "Europe/Berlin",
    "routeCount": 36,
    "searchText": "bremen airport bremen germany bre eddw"
  },
  {
    "id": "3320",
    "name": "Brisbane International Airport",
    "city": "Brisbane",
    "country": "Australia",
    "iata": "BNE",
    "icao": "YBBN",
    "lat": -27.38419914245605,
    "lon": 153.11700439453125,
    "altitudeFt": 13,
    "tzName": "Australia/Brisbane",
    "routeCount": 18,
    "searchText": "brisbane international airport brisbane australia bne ybbn"
  },
  {
    "id": "490",
    "name": "Bristol Airport",
    "city": "Bristol",
    "country": "United Kingdom",
    "iata": "BRS",
    "icao": "EGGD",
    "lat": 51.382702,
    "lon": -2.71909,
    "altitudeFt": 622,
    "tzName": "Europe/London",
    "routeCount": 52,
    "searchText": "bristol airport bristol united kingdom brs eggd"
  },
  {
    "id": "302",
    "name": "Brussels Airport",
    "city": "Brussels",
    "country": "Belgium",
    "iata": "BRU",
    "icao": "EBBR",
    "lat": 50.9014015198,
    "lon": 4.48443984985,
    "altitudeFt": 184,
    "tzName": "Europe/Brussels",
    "routeCount": 112,
    "searchText": "brussels airport brussels belgium bru ebbr"
  },
  {
    "id": "304",
    "name": "Brussels South Charleroi Airport",
    "city": "Charleroi",
    "country": "Belgium",
    "iata": "CRL",
    "icao": "EBCI",
    "lat": 50.459202000000005,
    "lon": 4.4538199999999994,
    "altitudeFt": 614,
    "tzName": "Europe/Brussels",
    "routeCount": 43,
    "searchText": "brussels south charleroi airport charleroi belgium crl ebci"
  },
  {
    "id": "1489",
    "name": "Budapest Liszt Ferenc International Airport",
    "city": "Budapest",
    "country": "Hungary",
    "iata": "BUD",
    "icao": "LHBP",
    "lat": 47.429759999999995,
    "lon": 19.261093,
    "altitudeFt": 495,
    "tzName": "Europe/Budapest",
    "routeCount": 70,
    "searchText": "budapest liszt ferenc international airport budapest hungary bud lhbp"
  },
  {
    "id": "1519",
    "name": "Cagliari Elmas Airport",
    "city": "Cagliari",
    "country": "Italy",
    "iata": "CAG",
    "icao": "LIEE",
    "lat": 39.251499,
    "lon": 9.05428,
    "altitudeFt": 13,
    "tzName": "Europe/Rome",
    "routeCount": 27,
    "searchText": "cagliari elmas airport cagliari italy cag liee"
  },
  {
    "id": "3322",
    "name": "Cairns International Airport",
    "city": "Cairns",
    "country": "Australia",
    "iata": "CNS",
    "icao": "YBCS",
    "lat": -16.885799408,
    "lon": 145.755004883,
    "altitudeFt": 10,
    "tzName": "Australia/Brisbane",
    "routeCount": 9,
    "searchText": "cairns international airport cairns australia cns ybcs"
  },
  {
    "id": "1128",
    "name": "Cairo International Airport",
    "city": "Cairo",
    "country": "Egypt",
    "iata": "CAI",
    "icao": "HECA",
    "lat": 30.12190055847168,
    "lon": 31.40559959411621,
    "altitudeFt": 382,
    "tzName": "Africa/Cairo",
    "routeCount": 51,
    "searchText": "cairo international airport cairo egypt cai heca"
  },
  {
    "id": "178",
    "name": "Calgary International Airport",
    "city": "Calgary",
    "country": "Canada",
    "iata": "YYC",
    "icao": "CYYC",
    "lat": 51.113899231000005,
    "lon": -114.019996643,
    "altitudeFt": 3557,
    "tzName": "America/Edmonton",
    "routeCount": 29,
    "searchText": "calgary international airport calgary canada yyc cyyc"
  },
  {
    "id": "1852",
    "name": "Cancún International Airport",
    "city": "Cancun",
    "country": "Mexico",
    "iata": "CUN",
    "icao": "MMUN",
    "lat": 21.036500930800003,
    "lon": -86.8770980835,
    "altitudeFt": 22,
    "tzName": "America/Cancun",
    "routeCount": 60,
    "searchText": "cancún international airport cancun mexico cun mmun"
  },
  {
    "id": "1509",
    "name": "Catania-Fontanarossa Airport",
    "city": "Catania",
    "country": "Italy",
    "iata": "CTA",
    "icao": "LICC",
    "lat": 37.466801000000004,
    "lon": 15.0664,
    "altitudeFt": 39,
    "tzName": "Europe/Rome",
    "routeCount": 43,
    "searchText": "catania-fontanarossa airport catania italy cta licc"
  },
  {
    "id": "3371",
    "name": "Changsha Huanghua International Airport",
    "city": "Changcha",
    "country": "China",
    "iata": "CSX",
    "icao": "ZGHA",
    "lat": 28.189199447600004,
    "lon": 113.220001221,
    "altitudeFt": 217,
    "tzName": "Asia/Shanghai",
    "routeCount": 43,
    "searchText": "changsha huanghua international airport changcha china csx zgha"
  },
  {
    "id": "1474",
    "name": "Chania International Airport",
    "city": "Chania",
    "country": "Greece",
    "iata": "CHQ",
    "icao": "LGSA",
    "lat": 35.531700134277344,
    "lon": 24.149700164794922,
    "altitudeFt": 490,
    "tzName": "Europe/Athens",
    "routeCount": 33,
    "searchText": "chania international airport chania greece chq lgsa"
  },
  {
    "id": "1382",
    "name": "Charles de Gaulle International Airport",
    "city": "Paris",
    "country": "France",
    "iata": "CDG",
    "icao": "LFPG",
    "lat": 49.012798,
    "lon": 2.55,
    "altitudeFt": 392,
    "tzName": "Europe/Paris",
    "routeCount": 172,
    "searchText": "charles de gaulle international airport paris france cdg lfpg"
  },
  {
    "id": "3876",
    "name": "Charlotte Douglas International Airport",
    "city": "Charlotte",
    "country": "United States",
    "iata": "CLT",
    "icao": "KCLT",
    "lat": 35.2140007019043,
    "lon": -80.94309997558594,
    "altitudeFt": 748,
    "tzName": "America/New_York",
    "routeCount": 61,
    "searchText": "charlotte douglas international airport charlotte united states clt kclt"
  },
  {
    "id": "3395",
    "name": "Chengdu Shuangliu International Airport",
    "city": "Chengdu",
    "country": "China",
    "iata": "CTU",
    "icao": "ZUUU",
    "lat": 30.578500747680664,
    "lon": 103.9469985961914,
    "altitudeFt": 1625,
    "tzName": "Asia/Shanghai",
    "routeCount": 57,
    "searchText": "chengdu shuangliu international airport chengdu china ctu zuuu"
  },
  {
    "id": "3144",
    "name": "Chennai International Airport",
    "city": "Madras",
    "country": "India",
    "iata": "MAA",
    "icao": "VOMM",
    "lat": 12.990005493164062,
    "lon": 80.16929626464844,
    "altitudeFt": 52,
    "tzName": "Asia/Calcutta",
    "routeCount": 23,
    "searchText": "chennai international airport madras india maa vomm"
  },
  {
    "id": "2997",
    "name": "Chhatrapati Shivaji International Airport",
    "city": "Mumbai",
    "country": "India",
    "iata": "BOM",
    "icao": "VABB",
    "lat": 19.088699340799998,
    "lon": 72.8678970337,
    "altitudeFt": 39,
    "tzName": "Asia/Calcutta",
    "routeCount": 41,
    "searchText": "chhatrapati shivaji international airport mumbai india bom vabb"
  },
  {
    "id": "3747",
    "name": "Chicago Midway International Airport",
    "city": "Chicago",
    "country": "United States",
    "iata": "MDW",
    "icao": "KMDW",
    "lat": 41.785999,
    "lon": -87.752403,
    "altitudeFt": 620,
    "tzName": "America/Chicago",
    "routeCount": 40,
    "searchText": "chicago midway international airport chicago united states mdw kmdw"
  },
  {
    "id": "3830",
    "name": "Chicago O'Hare International Airport",
    "city": "Chicago",
    "country": "United States",
    "iata": "ORD",
    "icao": "KORD",
    "lat": 41.9786,
    "lon": -87.9048,
    "altitudeFt": 672,
    "tzName": "America/Chicago",
    "routeCount": 91,
    "searchText": "chicago o'hare international airport chicago united states ord kord"
  },
  {
    "id": "3393",
    "name": "Chongqing Jiangbei International Airport",
    "city": "Chongqing",
    "country": "China",
    "iata": "CKG",
    "icao": "ZUCK",
    "lat": 29.719200134277344,
    "lon": 106.64199829101562,
    "altitudeFt": 1365,
    "tzName": "Asia/Shanghai",
    "routeCount": 49,
    "searchText": "chongqing jiangbei international airport chongqing china ckg zuck"
  },
  {
    "id": "3942",
    "name": "Chubu Centrair International Airport",
    "city": "Nagoya",
    "country": "Japan",
    "iata": "NGO",
    "icao": "RJGG",
    "lat": 34.8583984375,
    "lon": 136.80499267578122,
    "altitudeFt": 15,
    "tzName": "Asia/Tokyo",
    "routeCount": 26,
    "searchText": "chubu centrair international airport nagoya japan ngo rjgg"
  },
  {
    "id": "1553",
    "name": "Ciampino–G. B. Pastine International Airport",
    "city": "Rome",
    "country": "Italy",
    "iata": "CIA",
    "icao": "LIRA",
    "lat": 41.7994,
    "lon": 12.5949,
    "altitudeFt": 427,
    "tzName": "Europe/Rome",
    "routeCount": 35,
    "searchText": "ciampino–g. b. pastine international airport rome italy cia lira"
  },
  {
    "id": "3488",
    "name": "Cincinnati Northern Kentucky International Airport",
    "city": "Cincinnati",
    "country": "United States",
    "iata": "CVG",
    "icao": "KCVG",
    "lat": 39.0488014221,
    "lon": -84.6678009033,
    "altitudeFt": 896,
    "tzName": "America/New_York",
    "routeCount": 38,
    "searchText": "cincinnati northern kentucky international airport cincinnati united states cvg kcvg"
  },
  {
    "id": "3486",
    "name": "Cleveland Hopkins International Airport",
    "city": "Cleveland",
    "country": "United States",
    "iata": "CLE",
    "icao": "KCLE",
    "lat": 41.411701202399996,
    "lon": -81.8498001099,
    "altitudeFt": 791,
    "tzName": "America/New_York",
    "routeCount": 37,
    "searchText": "cleveland hopkins international airport cleveland united states cle kcle"
  },
  {
    "id": "344",
    "name": "Cologne Bonn Airport",
    "city": "Cologne",
    "country": "Germany",
    "iata": "CGN",
    "icao": "EDDK",
    "lat": 50.865898132299996,
    "lon": 7.1427397728,
    "altitudeFt": 302,
    "tzName": "Europe/Berlin",
    "routeCount": 63,
    "searchText": "cologne bonn airport cologne germany cgn eddk"
  },
  {
    "id": "2650",
    "name": "Comodoro Arturo Merino Benítez International Airport",
    "city": "Santiago",
    "country": "Chile",
    "iata": "SCL",
    "icao": "SCEL",
    "lat": -33.393001556396484,
    "lon": -70.78579711914062,
    "altitudeFt": 1555,
    "tzName": "America/Santiago",
    "routeCount": 21,
    "searchText": "comodoro arturo merino benítez international airport santiago chile scl scel"
  },
  {
    "id": "609",
    "name": "Copenhagen Kastrup Airport",
    "city": "Copenhagen",
    "country": "Denmark",
    "iata": "CPH",
    "icao": "EKCH",
    "lat": 55.617900848389,
    "lon": 12.656000137328999,
    "altitudeFt": 17,
    "tzName": "Europe/Copenhagen",
    "routeCount": 97,
    "searchText": "copenhagen kastrup airport copenhagen denmark cph ekch"
  },
  {
    "id": "680",
    "name": "Copernicus Wrocław Airport",
    "city": "Wroclaw",
    "country": "Poland",
    "iata": "WRO",
    "icao": "EPWR",
    "lat": 51.10269927979999,
    "lon": 16.885799408,
    "altitudeFt": 404,
    "tzName": "Europe/Warsaw",
    "routeCount": 27,
    "searchText": "copernicus wrocław airport wroclaw poland wro epwr"
  },
  {
    "id": "596",
    "name": "Cork Airport",
    "city": "Cork",
    "country": "Ireland",
    "iata": "ORK",
    "icao": "EICK",
    "lat": 51.84130096435547,
    "lon": -8.491109848022461,
    "altitudeFt": 502,
    "tzName": "Europe/Dublin",
    "routeCount": 30,
    "searchText": "cork airport cork ireland ork eick"
  },
  {
    "id": "3670",
    "name": "Dallas Fort Worth International Airport",
    "city": "Dallas-Fort Worth",
    "country": "United States",
    "iata": "DFW",
    "icao": "KDFW",
    "lat": 32.896801,
    "lon": -97.038002,
    "altitudeFt": 607,
    "tzName": "America/Chicago",
    "routeCount": 77,
    "searchText": "dallas fort worth international airport dallas-fort worth united states dfw kdfw"
  },
  {
    "id": "3728",
    "name": "Daniel K Inouye International Airport",
    "city": "Honolulu",
    "country": "United States",
    "iata": "HNL",
    "icao": "PHNL",
    "lat": 21.32062,
    "lon": -157.924228,
    "altitudeFt": 13,
    "tzName": "Pacific/Honolulu",
    "routeCount": 36,
    "searchText": "daniel k inouye international airport honolulu united states hnl phnl"
  },
  {
    "id": "3751",
    "name": "Denver International Airport",
    "city": "Denver",
    "country": "United States",
    "iata": "DEN",
    "icao": "KDEN",
    "lat": 39.861698150635,
    "lon": -104.672996521,
    "altitudeFt": 5431,
    "tzName": "America/Denver",
    "routeCount": 60,
    "searchText": "denver international airport denver united states den kden"
  },
  {
    "id": "2621",
    "name": "Deputado Luiz Eduardo Magalhães International Airport",
    "city": "Salvador",
    "country": "Brazil",
    "iata": "SSA",
    "icao": "SBSV",
    "lat": -12.9086112976,
    "lon": -38.3224983215,
    "altitudeFt": 64,
    "tzName": "America/Fortaleza",
    "routeCount": 10,
    "searchText": "deputado luiz eduardo magalhães international airport salvador brazil ssa sbsv"
  },
  {
    "id": "3645",
    "name": "Detroit Metropolitan Wayne County Airport",
    "city": "Detroit",
    "country": "United States",
    "iata": "DTW",
    "icao": "KDTW",
    "lat": 42.212398529052734,
    "lon": -83.35340118408203,
    "altitudeFt": 645,
    "tzName": "America/New_York",
    "routeCount": 61,
    "searchText": "detroit metropolitan wayne county airport detroit united states dtw kdtw"
  },
  {
    "id": "1472",
    "name": "Diagoras Airport",
    "city": "Rhodos",
    "country": "Greece",
    "iata": "RHO",
    "icao": "LGRP",
    "lat": 36.40539932250977,
    "lon": 28.086200714111328,
    "altitudeFt": 17,
    "tzName": "Europe/Athens",
    "routeCount": 40,
    "searchText": "diagoras airport rhodos greece rho lgrp"
  },
  {
    "id": "4029",
    "name": "Domodedovo International Airport",
    "city": "Moscow",
    "country": "Russia",
    "iata": "DME",
    "icao": "UUDD",
    "lat": 55.40879821777344,
    "lon": 37.90629959106445,
    "altitudeFt": 588,
    "tzName": "Europe/Moscow",
    "routeCount": 67,
    "searchText": "domodedovo international airport moscow russia dme uudd"
  },
  {
    "id": "1804",
    "name": "Don Miguel Hidalgo Y Costilla International Airport",
    "city": "Guadalajara",
    "country": "Mexico",
    "iata": "GDL",
    "icao": "MMGL",
    "lat": 20.521799087524414,
    "lon": -103.31099700927734,
    "altitudeFt": 5016,
    "tzName": "America/Mexico_City",
    "routeCount": 18,
    "searchText": "don miguel hidalgo y costilla international airport guadalajara mexico gdl mmgl"
  },
  {
    "id": "3157",
    "name": "Don Mueang International Airport",
    "city": "Bangkok",
    "country": "Thailand",
    "iata": "DMK",
    "icao": "VTBD",
    "lat": 13.912599563599999,
    "lon": 100.607002258,
    "altitudeFt": 9,
    "tzName": "Asia/Bangkok",
    "routeCount": 20,
    "searchText": "don mueang international airport bangkok thailand dmk vtbd"
  },
  {
    "id": "2188",
    "name": "Dubai International Airport",
    "city": "Dubai",
    "country": "United Arab Emirates",
    "iata": "DXB",
    "icao": "OMDB",
    "lat": 25.252799987800003,
    "lon": 55.3643989563,
    "altitudeFt": 62,
    "tzName": "Asia/Dubai",
    "routeCount": 113,
    "searchText": "dubai international airport dubai united arab emirates dxb omdb"
  },
  {
    "id": "599",
    "name": "Dublin Airport",
    "city": "Dublin",
    "country": "Ireland",
    "iata": "DUB",
    "icao": "EIDW",
    "lat": 53.421299,
    "lon": -6.27007,
    "altitudeFt": 242,
    "tzName": "Europe/Dublin",
    "routeCount": 107,
    "searchText": "dublin airport dublin ireland dub eidw"
  },
  {
    "id": "1200",
    "name": "Dubrovnik Airport",
    "city": "Dubrovnik",
    "country": "Croatia",
    "iata": "DBV",
    "icao": "LDDU",
    "lat": 42.5614013671875,
    "lon": 18.268199920654297,
    "altitudeFt": 527,
    "tzName": "Europe/Zagreb",
    "routeCount": 38,
    "searchText": "dubrovnik airport dubrovnik croatia dbv lddu"
  },
  {
    "id": "2979",
    "name": "Dushanbe Airport",
    "city": "Dushanbe",
    "country": "Tajikistan",
    "iata": "DYU",
    "icao": "UTDD",
    "lat": 38.543300628699996,
    "lon": 68.8249969482,
    "altitudeFt": 2575,
    "tzName": "Asia/Dushanbe",
    "routeCount": 14,
    "searchText": "dushanbe airport dushanbe tajikistan dyu utdd"
  },
  {
    "id": "345",
    "name": "Düsseldorf Airport",
    "city": "Duesseldorf",
    "country": "Germany",
    "iata": "DUS",
    "icao": "EDDL",
    "lat": 51.289501,
    "lon": 6.766780000000001,
    "altitudeFt": 147,
    "tzName": "Europe/Berlin",
    "routeCount": 99,
    "searchText": "düsseldorf airport duesseldorf germany dus eddl"
  },
  {
    "id": "523",
    "name": "East Midlands Airport",
    "city": "East Midlands",
    "country": "United Kingdom",
    "iata": "EMA",
    "icao": "EGNX",
    "lat": 52.8311004639,
    "lon": -1.32806003094,
    "altitudeFt": 306,
    "tzName": "Europe/London",
    "routeCount": 38,
    "searchText": "east midlands airport east midlands united kingdom ema egnx"
  },
  {
    "id": "535",
    "name": "Edinburgh Airport",
    "city": "Edinburgh",
    "country": "United Kingdom",
    "iata": "EDI",
    "icao": "EGPH",
    "lat": 55.95000076293945,
    "lon": -3.372499942779541,
    "altitudeFt": 135,
    "tzName": "Europe/London",
    "routeCount": 65,
    "searchText": "edinburgh airport edinburgh united kingdom edi egph"
  },
  {
    "id": "49",
    "name": "Edmonton International Airport",
    "city": "Edmonton",
    "country": "Canada",
    "iata": "YEG",
    "icao": "CYEG",
    "lat": 53.309700012200004,
    "lon": -113.580001831,
    "altitudeFt": 2373,
    "tzName": "America/Edmonton",
    "routeCount": 18,
    "searchText": "edmonton international airport edmonton canada yeg cyeg"
  },
  {
    "id": "585",
    "name": "Eindhoven Airport",
    "city": "Eindhoven",
    "country": "Netherlands",
    "iata": "EIN",
    "icao": "EHEH",
    "lat": 51.4500999451,
    "lon": 5.374529838559999,
    "altitudeFt": 74,
    "tzName": "Europe/Amsterdam",
    "routeCount": 47,
    "searchText": "eindhoven airport eindhoven netherlands ein eheh"
  },
  {
    "id": "2709",
    "name": "El Dorado International Airport",
    "city": "Bogota",
    "country": "Colombia",
    "iata": "BOG",
    "icao": "SKBO",
    "lat": 4.70159,
    "lon": -74.1469,
    "altitudeFt": 8361,
    "tzName": "America/Bogota",
    "routeCount": 29,
    "searchText": "el dorado international airport bogota colombia bog skbo"
  },
  {
    "id": "3941",
    "name": "Eleftherios Venizelos International Airport",
    "city": "Athens",
    "country": "Greece",
    "iata": "ATH",
    "icao": "LGAV",
    "lat": 37.9364013672,
    "lon": 23.944499969499997,
    "altitudeFt": 308,
    "tzName": "Europe/Athens",
    "routeCount": 72,
    "searchText": "eleftherios venizelos international airport athens greece ath lgav"
  },
  {
    "id": "1682",
    "name": "Esenboğa International Airport",
    "city": "Ankara",
    "country": "Turkey",
    "iata": "ESB",
    "icao": "LTAC",
    "lat": 40.128101348899996,
    "lon": 32.995098114,
    "altitudeFt": 3125,
    "tzName": "Europe/Istanbul",
    "routeCount": 16,
    "searchText": "esenboğa international airport ankara turkey esb ltac"
  },
  {
    "id": "1423",
    "name": "EuroAirport Basel-Mulhouse-Freiburg Airport",
    "city": "Mulhouse",
    "country": "France",
    "iata": "BSL",
    "icao": "LFSB",
    "lat": 47.59,
    "lon": 7.5291667,
    "altitudeFt": 885,
    "tzName": "Europe/Paris",
    "routeCount": 57,
    "searchText": "euroairport basel-mulhouse-freiburg airport mulhouse france bsl lfsb"
  },
  {
    "id": "4075",
    "name": "Faa'a International Airport",
    "city": "Papeete",
    "country": "French Polynesia",
    "iata": "PPT",
    "icao": "NTAA",
    "lat": -17.553698999999998,
    "lon": -149.60699499999998,
    "altitudeFt": 5,
    "tzName": "Pacific/Tahiti",
    "routeCount": 4,
    "searchText": "faa'a international airport papeete french polynesia ppt ntaa"
  },
  {
    "id": "1512",
    "name": "Falcone–Borsellino Airport",
    "city": "Palermo",
    "country": "Italy",
    "iata": "PMO",
    "icao": "LICJ",
    "lat": 38.175999,
    "lon": 13.091,
    "altitudeFt": 65,
    "tzName": "Europe/Rome",
    "routeCount": 32,
    "searchText": "falcone–borsellino airport palermo italy pmo licj"
  },
  {
    "id": "1626",
    "name": "Faro Airport",
    "city": "Faro",
    "country": "Portugal",
    "iata": "FAO",
    "icao": "LPFR",
    "lat": 37.014400482199996,
    "lon": -7.965909957889999,
    "altitudeFt": 24,
    "tzName": "Europe/Lisbon",
    "routeCount": 46,
    "searchText": "faro airport faro portugal fao lpfr"
  },
  {
    "id": "3533",
    "name": "Fort Lauderdale Hollywood International Airport",
    "city": "Fort Lauderdale",
    "country": "United States",
    "iata": "FLL",
    "icao": "KFLL",
    "lat": 26.072599,
    "lon": -80.152702,
    "altitudeFt": 9,
    "tzName": "America/New_York",
    "routeCount": 53,
    "searchText": "fort lauderdale hollywood international airport fort lauderdale united states fll kfll"
  },
  {
    "id": "1636",
    "name": "Francisco de Sá Carneiro Airport",
    "city": "Porto",
    "country": "Portugal",
    "iata": "OPO",
    "icao": "LPPR",
    "lat": 41.248100280799996,
    "lon": -8.68138980865,
    "altitudeFt": 228,
    "tzName": "Europe/Lisbon",
    "routeCount": 47,
    "searchText": "francisco de sá carneiro airport porto portugal opo lppr"
  },
  {
    "id": "340",
    "name": "Frankfurt am Main Airport",
    "city": "Frankfurt",
    "country": "Germany",
    "iata": "FRA",
    "icao": "EDDF",
    "lat": 50.033333,
    "lon": 8.570556,
    "altitudeFt": 364,
    "tzName": "Europe/Berlin",
    "routeCount": 181,
    "searchText": "frankfurt am main airport frankfurt germany fra eddf"
  },
  {
    "id": "355",
    "name": "Frankfurt-Hahn Airport",
    "city": "Hahn",
    "country": "Germany",
    "iata": "HHN",
    "icao": "EDFH",
    "lat": 49.9487,
    "lon": 7.263889999999999,
    "altitudeFt": 1649,
    "tzName": "Europe/Berlin",
    "routeCount": 27,
    "searchText": "frankfurt-hahn airport hahn germany hhn edfh"
  },
  {
    "id": "1051",
    "name": "Fuerteventura Airport",
    "city": "Fuerteventura",
    "country": "Spain",
    "iata": "FUE",
    "icao": "GCFV",
    "lat": 28.452699661254886,
    "lon": -13.863800048828125,
    "altitudeFt": 85,
    "tzName": "Atlantic/Canary",
    "routeCount": 45,
    "searchText": "fuerteventura airport fuerteventura spain fue gcfv"
  },
  {
    "id": "2305",
    "name": "Fukuoka Airport",
    "city": "Fukuoka",
    "country": "Japan",
    "iata": "FUK",
    "icao": "RJFF",
    "lat": 33.585899353027344,
    "lon": 130.45100402832028,
    "altitudeFt": 32,
    "tzName": "Asia/Tokyo",
    "routeCount": 24,
    "searchText": "fukuoka airport fukuoka japan fuk rjff"
  },
  {
    "id": "3385",
    "name": "Fuzhou Changle International Airport",
    "city": "Fuzhou",
    "country": "China",
    "iata": "FOC",
    "icao": "ZSFZ",
    "lat": 25.935100555419922,
    "lon": 119.66300201416016,
    "altitudeFt": 46,
    "tzName": "Asia/Shanghai",
    "routeCount": 38,
    "searchText": "fuzhou changle international airport fuzhou china foc zsfz"
  },
  {
    "id": "668",
    "name": "Gdańsk Lech Wałęsa Airport",
    "city": "Gdansk",
    "country": "Poland",
    "iata": "GDN",
    "icao": "EPGD",
    "lat": 54.377601623535156,
    "lon": 18.46619987487793,
    "altitudeFt": 489,
    "tzName": "Europe/Warsaw",
    "routeCount": 36,
    "searchText": "gdańsk lech wałęsa airport gdansk poland gdn epgd"
  },
  {
    "id": "1847",
    "name": "General Abelardo L. Rodríguez International Airport",
    "city": "Tijuana",
    "country": "Mexico",
    "iata": "TIJ",
    "icao": "MMTJ",
    "lat": 32.541099548339844,
    "lon": -116.97000122070312,
    "altitudeFt": 489,
    "tzName": "America/Tijuana",
    "routeCount": 6,
    "searchText": "general abelardo l. rodríguez international airport tijuana mexico tij mmtj"
  },
  {
    "id": "3448",
    "name": "General Edward Lawrence Logan International Airport",
    "city": "Boston",
    "country": "United States",
    "iata": "BOS",
    "icao": "KBOS",
    "lat": 42.36429977,
    "lon": -71.00520325,
    "altitudeFt": 20,
    "tzName": "America/New_York",
    "routeCount": 66,
    "searchText": "general edward lawrence logan international airport boston united states bos kbos"
  },
  {
    "id": "1825",
    "name": "General Mariano Escobedo International Airport",
    "city": "Monterrey",
    "country": "Mexico",
    "iata": "MTY",
    "icao": "MMMY",
    "lat": 25.7784996033,
    "lon": -100.107002258,
    "altitudeFt": 1278,
    "tzName": "America/Mexico_City",
    "routeCount": 12,
    "searchText": "general mariano escobedo international airport monterrey mexico mty mmmy"
  },
  {
    "id": "3717",
    "name": "General Mitchell International Airport",
    "city": "Milwaukee",
    "country": "United States",
    "iata": "MKE",
    "icao": "KMKE",
    "lat": 42.94720077514648,
    "lon": -87.89659881591797,
    "altitudeFt": 723,
    "tzName": "America/Chicago",
    "routeCount": 30,
    "searchText": "general mitchell international airport milwaukee united states mke kmke"
  },
  {
    "id": "1665",
    "name": "Geneva Cointrin International Airport",
    "city": "Geneva",
    "country": "Switzerland",
    "iata": "GVA",
    "icao": "LSGG",
    "lat": 46.23809814453125,
    "lon": 6.108950138092041,
    "altitudeFt": 1411,
    "tzName": "Europe/Paris",
    "routeCount": 88,
    "searchText": "geneva cointrin international airport geneva switzerland gva lsgg"
  },
  {
    "id": "3550",
    "name": "George Bush Intercontinental Houston Airport",
    "city": "Houston",
    "country": "United States",
    "iata": "IAH",
    "icao": "KIAH",
    "lat": 29.98439979553223,
    "lon": -95.34140014648438,
    "altitudeFt": 97,
    "tzName": "America/Chicago",
    "routeCount": 76,
    "searchText": "george bush intercontinental houston airport houston united states iah kiah"
  },
  {
    "id": "2372",
    "name": "Gimhae International Airport",
    "city": "Busan",
    "country": "South Korea",
    "iata": "PUS",
    "icao": "RKPK",
    "lat": 35.1795005798,
    "lon": 128.93800354,
    "altitudeFt": 6,
    "tzName": "Asia/Seoul",
    "routeCount": 28,
    "searchText": "gimhae international airport busan south korea pus rkpk"
  },
  {
    "id": "1222",
    "name": "Girona Airport",
    "city": "Gerona",
    "country": "Spain",
    "iata": "GRO",
    "icao": "LEGE",
    "lat": 41.901000976999995,
    "lon": 2.7605500221,
    "altitudeFt": 468,
    "tzName": "Europe/Madrid",
    "routeCount": 30,
    "searchText": "girona airport gerona spain gro lege"
  },
  {
    "id": "534",
    "name": "Glasgow International Airport",
    "city": "Glasgow",
    "country": "United Kingdom",
    "iata": "GLA",
    "icao": "EGPF",
    "lat": 55.8718986511,
    "lon": -4.43306016922,
    "altitudeFt": 26,
    "tzName": "Europe/London",
    "routeCount": 45,
    "searchText": "glasgow international airport glasgow united kingdom gla egpf"
  },
  {
    "id": "687",
    "name": "Gothenburg-Landvetter Airport",
    "city": "Gothenborg",
    "country": "Sweden",
    "iata": "GOT",
    "icao": "ESGG",
    "lat": 57.662799835205,
    "lon": 12.279800415039,
    "altitudeFt": 506,
    "tzName": "Europe/Stockholm",
    "routeCount": 27,
    "searchText": "gothenburg-landvetter airport gothenborg sweden got esgg"
  },
  {
    "id": "1054",
    "name": "Gran Canaria Airport",
    "city": "Gran Canaria",
    "country": "Spain",
    "iata": "LPA",
    "icao": "GCLP",
    "lat": 27.931900024414066,
    "lon": -15.38659954071045,
    "altitudeFt": 78,
    "tzName": "Atlantic/Canary",
    "routeCount": 61,
    "searchText": "gran canaria airport gran canaria spain lpa gclp"
  },
  {
    "id": "3370",
    "name": "Guangzhou Baiyun International Airport",
    "city": "Guangzhou",
    "country": "China",
    "iata": "CAN",
    "icao": "ZGGG",
    "lat": 23.39240074157715,
    "lon": 113.29900360107422,
    "altitudeFt": 50,
    "tzName": "Asia/Shanghai",
    "routeCount": 77,
    "searchText": "guangzhou baiyun international airport guangzhou china can zggg"
  },
  {
    "id": "2564",
    "name": "Guarulhos - Governador André Franco Montoro International Airport",
    "city": "Sao Paulo",
    "country": "Brazil",
    "iata": "GRU",
    "icao": "SBGR",
    "lat": -23.435556411743164,
    "lon": -46.47305679321289,
    "altitudeFt": 2459,
    "tzName": "America/Sao_Paulo",
    "routeCount": 45,
    "searchText": "guarulhos - governador andré franco montoro international airport sao paulo brazil gru sbgr"
  },
  {
    "id": "3372",
    "name": "Guilin Liangjiang International Airport",
    "city": "Guilin",
    "country": "China",
    "iata": "KWL",
    "icao": "ZGKL",
    "lat": 25.21809959411621,
    "lon": 110.03900146484376,
    "altitudeFt": 570,
    "tzName": "Asia/Shanghai",
    "routeCount": 36,
    "searchText": "guilin liangjiang international airport guilin china kwl zgkl"
  },
  {
    "id": "4120",
    "name": "Haikou Meilan International Airport",
    "city": "Haikou",
    "country": "China",
    "iata": "HAK",
    "icao": "ZJHK",
    "lat": 19.93490028381348,
    "lon": 110.45899963378906,
    "altitudeFt": 75,
    "tzName": "Asia/Shanghai",
    "routeCount": 29,
    "searchText": "haikou meilan international airport haikou china hak zjhk"
  },
  {
    "id": "73",
    "name": "Halifax / Stanfield International Airport",
    "city": "Halifax",
    "country": "Canada",
    "iata": "YHZ",
    "icao": "CYHZ",
    "lat": 44.880798339799995,
    "lon": -63.508598327600005,
    "altitudeFt": 477,
    "tzName": "America/Halifax",
    "routeCount": 14,
    "searchText": "halifax / stanfield international airport halifax canada yhz cyhz"
  },
  {
    "id": "11051",
    "name": "Hamad International Airport",
    "city": "Doha",
    "country": "Qatar",
    "iata": "DOH",
    "icao": "OTHH",
    "lat": 25.273056,
    "lon": 51.608056,
    "altitudeFt": 13,
    "tzName": null,
    "routeCount": 88,
    "searchText": "hamad international airport doha qatar doh othh"
  },
  {
    "id": "342",
    "name": "Hamburg Airport",
    "city": "Hamburg",
    "country": "Germany",
    "iata": "HAM",
    "icao": "EDDH",
    "lat": 53.630401611328004,
    "lon": 9.988229751586902,
    "altitudeFt": 53,
    "tzName": "Europe/Berlin",
    "routeCount": 69,
    "searchText": "hamburg airport hamburg germany ham eddh"
  },
  {
    "id": "3386",
    "name": "Hangzhou Xiaoshan International Airport",
    "city": "Hangzhou",
    "country": "China",
    "iata": "HGH",
    "icao": "ZSHC",
    "lat": 30.22949981689453,
    "lon": 120.43399810791016,
    "altitudeFt": 23,
    "tzName": "Asia/Shanghai",
    "routeCount": 45,
    "searchText": "hangzhou xiaoshan international airport hangzhou china hgh zshc"
  },
  {
    "id": "352",
    "name": "Hannover Airport",
    "city": "Hannover",
    "country": "Germany",
    "iata": "HAJ",
    "icao": "EDDV",
    "lat": 52.461101532,
    "lon": 9.68507957458,
    "altitudeFt": 183,
    "tzName": "Europe/Berlin",
    "routeCount": 44,
    "searchText": "hannover airport hannover germany haj eddv"
  },
  {
    "id": "3682",
    "name": "Hartsfield Jackson Atlanta International Airport",
    "city": "Atlanta",
    "country": "United States",
    "iata": "ATL",
    "icao": "KATL",
    "lat": 33.6367,
    "lon": -84.428101,
    "altitudeFt": 1026,
    "tzName": "America/New_York",
    "routeCount": 86,
    "searchText": "hartsfield jackson atlanta international airport atlanta united states atl katl"
  },
  {
    "id": "3076",
    "name": "Hazrat Shahjalal International Airport",
    "city": "Dhaka",
    "country": "Bangladesh",
    "iata": "DAC",
    "icao": "VGZR",
    "lat": 23.843347,
    "lon": 90.39778299999999,
    "altitudeFt": 30,
    "tzName": "Asia/Dhaka",
    "routeCount": 25,
    "searchText": "hazrat shahjalal international airport dhaka bangladesh dac vgzr"
  },
  {
    "id": "3389",
    "name": "Hefei Luogang International Airport",
    "city": "Hefei",
    "country": "China",
    "iata": "HFE",
    "icao": "ZSOF",
    "lat": 31.78000068664551,
    "lon": 117.2979965209961,
    "altitudeFt": 108,
    "tzName": "Asia/Shanghai",
    "routeCount": 29,
    "searchText": "hefei luogang international airport hefei china hfe zsof"
  },
  {
    "id": "421",
    "name": "Helsinki Vantaa Airport",
    "city": "Helsinki",
    "country": "Finland",
    "iata": "HEL",
    "icao": "EFHK",
    "lat": 60.317199707031,
    "lon": 24.963300704956,
    "altitudeFt": 179,
    "tzName": "Europe/Helsinki",
    "routeCount": 64,
    "searchText": "helsinki vantaa airport helsinki finland hel efhk"
  },
  {
    "id": "1657",
    "name": "Henri Coandă International Airport",
    "city": "Bucharest",
    "country": "Romania",
    "iata": "OTP",
    "icao": "LROP",
    "lat": 44.5711111,
    "lon": 26.085,
    "altitudeFt": 314,
    "tzName": "Europe/Bucharest",
    "routeCount": 54,
    "searchText": "henri coandă international airport bucharest romania otp lrop"
  },
  {
    "id": "1452",
    "name": "Heraklion International Nikos Kazantzakis Airport",
    "city": "Heraklion",
    "country": "Greece",
    "iata": "HER",
    "icao": "LGIR",
    "lat": 35.3396987915,
    "lon": 25.1802997589,
    "altitudeFt": 115,
    "tzName": "Europe/Athens",
    "routeCount": 50,
    "searchText": "heraklion international nikos kazantzakis airport heraklion greece her lgir"
  },
  {
    "id": "2922",
    "name": "Heydar Aliyev International Airport",
    "city": "Baku",
    "country": "Azerbaijan",
    "iata": "GYD",
    "icao": "UBBB",
    "lat": 40.46749877929688,
    "lon": 50.04669952392578,
    "altitudeFt": 10,
    "tzName": "Asia/Baku",
    "routeCount": 28,
    "searchText": "heydar aliyev international airport baku azerbaijan gyd ubbb"
  },
  {
    "id": "3077",
    "name": "Hong Kong International Airport",
    "city": "Hong Kong",
    "country": "Hong Kong",
    "iata": "HKG",
    "icao": "VHHH",
    "lat": 22.308901000000002,
    "lon": 113.915001,
    "altitudeFt": 28,
    "tzName": "Asia/Hong_Kong",
    "routeCount": 97,
    "searchText": "hong kong international airport hong kong hong kong hkg vhhh"
  },
  {
    "id": "210",
    "name": "Houari Boumediene Airport",
    "city": "Algier",
    "country": "Algeria",
    "iata": "ALG",
    "icao": "DAAG",
    "lat": 36.691001892089844,
    "lon": 3.215409994125366,
    "altitudeFt": 82,
    "tzName": "Africa/Algiers",
    "routeCount": 37,
    "searchText": "houari boumediene airport algier algeria alg daag"
  },
  {
    "id": "1638",
    "name": "Humberto Delgado Airport (Lisbon Portela Airport)",
    "city": "Lisbon",
    "country": "Portugal",
    "iata": "LIS",
    "icao": "LPPT",
    "lat": 38.7813,
    "lon": -9.13592,
    "altitudeFt": 374,
    "tzName": "Europe/Lisbon",
    "routeCount": 82,
    "searchText": "humberto delgado airport (lisbon portela airport) lisbon portugal lis lppt"
  },
  {
    "id": "1225",
    "name": "Ibiza Airport",
    "city": "Ibiza",
    "country": "Spain",
    "iata": "IBZ",
    "icao": "LEIB",
    "lat": 38.8728981018,
    "lon": 1.3731199502899998,
    "altitudeFt": 24,
    "tzName": "Europe/Madrid",
    "routeCount": 50,
    "searchText": "ibiza airport ibiza spain ibz leib"
  },
  {
    "id": "1525",
    "name": "Il Caravaggio International Airport",
    "city": "Bergamo",
    "country": "Italy",
    "iata": "BGY",
    "icao": "LIME",
    "lat": 45.673901,
    "lon": 9.70417,
    "altitudeFt": 782,
    "tzName": "Europe/Rome",
    "routeCount": 54,
    "searchText": "il caravaggio international airport bergamo italy bgy lime"
  },
  {
    "id": "4330",
    "name": "Imam Khomeini International Airport",
    "city": "Tehran",
    "country": "Iran",
    "iata": "IKA",
    "icao": "OIIE",
    "lat": 35.416099548339844,
    "lon": 51.152198791503906,
    "altitudeFt": 3305,
    "tzName": "Asia/Tehran",
    "routeCount": 39,
    "searchText": "imam khomeini international airport tehran iran ika oiie"
  },
  {
    "id": "3930",
    "name": "Incheon International Airport",
    "city": "Seoul",
    "country": "South Korea",
    "iata": "ICN",
    "icao": "RKSI",
    "lat": 37.46910095214844,
    "lon": 126.45099639892578,
    "altitudeFt": 23,
    "tzName": "Asia/Seoul",
    "routeCount": 90,
    "searchText": "incheon international airport seoul south korea icn rksi"
  },
  {
    "id": "3585",
    "name": "Indianapolis International Airport",
    "city": "Indianapolis",
    "country": "United States",
    "iata": "IND",
    "icao": "KIND",
    "lat": 39.7173,
    "lon": -86.294403,
    "altitudeFt": 797,
    "tzName": "America/New_York",
    "routeCount": 33,
    "searchText": "indianapolis international airport indianapolis united states ind kind"
  },
  {
    "id": "3093",
    "name": "Indira Gandhi International Airport",
    "city": "Delhi",
    "country": "India",
    "iata": "DEL",
    "icao": "VIDP",
    "lat": 28.5665,
    "lon": 77.103104,
    "altitudeFt": 777,
    "tzName": "Asia/Calcutta",
    "routeCount": 54,
    "searchText": "indira gandhi international airport delhi india del vidp"
  },
  {
    "id": "1460",
    "name": "Ioannis Kapodistrias International Airport",
    "city": "Kerkyra/corfu",
    "country": "Greece",
    "iata": "CFU",
    "icao": "LGKR",
    "lat": 39.601898193359375,
    "lon": 19.911699295043945,
    "altitudeFt": 6,
    "tzName": "Europe/Athens",
    "routeCount": 33,
    "searchText": "ioannis kapodistrias international airport kerkyra/corfu greece cfu lgkr"
  },
  {
    "id": "2370",
    "name": "Jeju International Airport",
    "city": "Cheju",
    "country": "South Korea",
    "iata": "CJU",
    "icao": "RKPC",
    "lat": 33.51129913330078,
    "lon": 126.49299621582031,
    "altitudeFt": 118,
    "tzName": "Asia/Seoul",
    "routeCount": 21,
    "searchText": "jeju international airport cheju south korea cju rkpc"
  },
  {
    "id": "499",
    "name": "Jersey Airport",
    "city": "Jersey",
    "country": "Jersey",
    "iata": "JER",
    "icao": "EGJJ",
    "lat": 49.20790100097656,
    "lon": -2.1955099105834956,
    "altitudeFt": 277,
    "tzName": "Europe/Jersey",
    "routeCount": 22,
    "searchText": "jersey airport jersey jersey jer egjj"
  },
  {
    "id": "2206",
    "name": "Jinnah International Airport",
    "city": "Karachi",
    "country": "Pakistan",
    "iata": "KHI",
    "icao": "OPKC",
    "lat": 24.9065,
    "lon": 67.160797,
    "altitudeFt": 100,
    "tzName": "Asia/Karachi",
    "routeCount": 24,
    "searchText": "jinnah international airport karachi pakistan khi opkc"
  },
  {
    "id": "3797",
    "name": "John F Kennedy International Airport",
    "city": "New York",
    "country": "United States",
    "iata": "JFK",
    "icao": "KJFK",
    "lat": 40.63980103,
    "lon": -73.77890015,
    "altitudeFt": 13,
    "tzName": "America/New_York",
    "routeCount": 117,
    "searchText": "john f kennedy international airport new york united states jfk kjfk"
  },
  {
    "id": "3759",
    "name": "John Glenn Columbus International Airport",
    "city": "Columbus",
    "country": "United States",
    "iata": "CMH",
    "icao": "KCMH",
    "lat": 39.998001,
    "lon": -82.891899,
    "altitudeFt": 815,
    "tzName": "America/New_York",
    "routeCount": 31,
    "searchText": "john glenn columbus international airport columbus united states cmh kcmh"
  },
  {
    "id": "4059",
    "name": "Jomo Kenyatta International Airport",
    "city": "Nairobi",
    "country": "Kenya",
    "iata": "NBO",
    "icao": "HKJK",
    "lat": -1.31923997402,
    "lon": 36.9277992249,
    "altitudeFt": 5330,
    "tzName": "Africa/Nairobi",
    "routeCount": 23,
    "searchText": "jomo kenyatta international airport nairobi kenya nbo hkjk"
  },
  {
    "id": "2789",
    "name": "Jorge Chávez International Airport",
    "city": "Lima",
    "country": "Peru",
    "iata": "LIM",
    "icao": "SPIM",
    "lat": -12.0219,
    "lon": -77.114305,
    "altitudeFt": 113,
    "tzName": "America/Lima",
    "routeCount": 26,
    "searchText": "jorge chávez international airport lima peru lim spim"
  },
  {
    "id": "2442",
    "name": "Jorge Newbery Airpark",
    "city": "Buenos Aires",
    "country": "Argentina",
    "iata": "AEP",
    "icao": "SABE",
    "lat": -34.5592,
    "lon": -58.4156,
    "altitudeFt": 18,
    "tzName": "America/Buenos_Aires",
    "routeCount": 4,
    "searchText": "jorge newbery airpark buenos aires argentina aep sabe"
  },
  {
    "id": "1909",
    "name": "José Martí International Airport",
    "city": "Havana",
    "country": "Cuba",
    "iata": "HAV",
    "icao": "MUHA",
    "lat": 22.989200592041016,
    "lon": -82.40910339355469,
    "altitudeFt": 210,
    "tzName": "America/Havana",
    "routeCount": 22,
    "searchText": "josé martí international airport havana cuba hav muha"
  },
  {
    "id": "1885",
    "name": "Juan Santamaria International Airport",
    "city": "San Jose",
    "country": "Costa Rica",
    "iata": "SJO",
    "icao": "MROC",
    "lat": 9.993860244750977,
    "lon": -84.20880126953125,
    "altitudeFt": 3021,
    "tzName": "America/Costa_Rica",
    "routeCount": 21,
    "searchText": "juan santamaria international airport san jose costa rica sjo mroc"
  },
  {
    "id": "3992",
    "name": "Kansai International Airport",
    "city": "Osaka",
    "country": "Japan",
    "iata": "KIX",
    "icao": "RJBB",
    "lat": 34.42729949951172,
    "lon": 135.24400329589844,
    "altitudeFt": 26,
    "tzName": "Asia/Tokyo",
    "routeCount": 43,
    "searchText": "kansai international airport osaka japan kix rjbb"
  },
  {
    "id": "3458",
    "name": "Kansas City International Airport",
    "city": "Kansas City",
    "country": "United States",
    "iata": "MCI",
    "icao": "KMCI",
    "lat": 39.2976,
    "lon": -94.713898,
    "altitudeFt": 1026,
    "tzName": "America/Chicago",
    "routeCount": 39,
    "searchText": "kansas city international airport kansas city united states mci kmci"
  },
  {
    "id": "2264",
    "name": "Kaohsiung International Airport",
    "city": "Kaohsiung",
    "country": "Taiwan",
    "iata": "KHH",
    "icao": "RCKH",
    "lat": 22.57710075378418,
    "lon": 120.3499984741211,
    "altitudeFt": 31,
    "tzName": "Asia/Taipei",
    "routeCount": 33,
    "searchText": "kaohsiung international airport kaohsiung taiwan khh rckh"
  },
  {
    "id": "16",
    "name": "Keflavik International Airport",
    "city": "Keflavik",
    "country": "Iceland",
    "iata": "KEF",
    "icao": "BIKF",
    "lat": 63.985000610352,
    "lon": -22.605600357055998,
    "altitudeFt": 171,
    "tzName": "Atlantic/Reykjavik",
    "routeCount": 33,
    "searchText": "keflavik international airport keflavik iceland kef bikf"
  },
  {
    "id": "3131",
    "name": "Kempegowda International Airport",
    "city": "Bangalore",
    "country": "India",
    "iata": "BLR",
    "icao": "VOBL",
    "lat": 13.1979,
    "lon": 77.706299,
    "altitudeFt": 3000,
    "tzName": "Asia/Calcutta",
    "routeCount": 20,
    "searchText": "kempegowda international airport bangalore india blr vobl"
  },
  {
    "id": "2072",
    "name": "King Abdulaziz International Airport",
    "city": "Jeddah",
    "country": "Saudi Arabia",
    "iata": "JED",
    "icao": "OEJN",
    "lat": 21.6796,
    "lon": 39.156502,
    "altitudeFt": 48,
    "tzName": "Asia/Riyadh",
    "routeCount": 51,
    "searchText": "king abdulaziz international airport jeddah saudi arabia jed oejn"
  },
  {
    "id": "2064",
    "name": "King Fahd International Airport",
    "city": "Dammam",
    "country": "Saudi Arabia",
    "iata": "DMM",
    "icao": "OEDF",
    "lat": 26.471200942993164,
    "lon": 49.79790115356445,
    "altitudeFt": 72,
    "tzName": "Asia/Riyadh",
    "routeCount": 29,
    "searchText": "king fahd international airport dammam saudi arabia dmm oedf"
  },
  {
    "id": "2082",
    "name": "King Khaled International Airport",
    "city": "Riyadh",
    "country": "Saudi Arabia",
    "iata": "RUH",
    "icao": "OERK",
    "lat": 24.957599639892575,
    "lon": 46.69879913330078,
    "altitudeFt": 2049,
    "tzName": "Asia/Riyadh",
    "routeCount": 43,
    "searchText": "king khaled international airport riyadh saudi arabia ruh oerk"
  },
  {
    "id": "2975",
    "name": "Koltsovo Airport",
    "city": "Yekaterinburg",
    "country": "Russia",
    "iata": "SVX",
    "icao": "USSS",
    "lat": 56.743099212646,
    "lon": 60.802700042725,
    "altitudeFt": 764,
    "tzName": "Asia/Yekaterinburg",
    "routeCount": 28,
    "searchText": "koltsovo airport yekaterinburg russia svx usss"
  },
  {
    "id": "1458",
    "name": "Kos Airport",
    "city": "Kos",
    "country": "Greece",
    "iata": "KGS",
    "icao": "LGKO",
    "lat": 36.79330062866211,
    "lon": 27.09169960021973,
    "altitudeFt": 412,
    "tzName": "Europe/Athens",
    "routeCount": 27,
    "searchText": "kos airport kos greece kgs lgko"
  },
  {
    "id": "3269",
    "name": "Kota Kinabalu International Airport",
    "city": "Kota Kinabalu",
    "country": "Malaysia",
    "iata": "BKI",
    "icao": "WBKK",
    "lat": 5.9372100830078125,
    "lon": 116.0510025024414,
    "altitudeFt": 10,
    "tzName": "Asia/Kuala_Lumpur",
    "routeCount": 14,
    "searchText": "kota kinabalu international airport kota kinabalu malaysia bki wbkk"
  },
  {
    "id": "248",
    "name": "Kotoka International Airport",
    "city": "Accra",
    "country": "Ghana",
    "iata": "ACC",
    "icao": "DGAA",
    "lat": 5.605189800262451,
    "lon": -0.16678600013256073,
    "altitudeFt": 205,
    "tzName": "Africa/Accra",
    "routeCount": 17,
    "searchText": "kotoka international airport accra ghana acc dgaa"
  },
  {
    "id": "669",
    "name": "Kraków John Paul II International Airport",
    "city": "Krakow",
    "country": "Poland",
    "iata": "KRK",
    "icao": "EPKK",
    "lat": 50.077702,
    "lon": 19.7848,
    "altitudeFt": 791,
    "tzName": "Europe/Warsaw",
    "routeCount": 46,
    "searchText": "kraków john paul ii international airport krakow poland krk epkk"
  },
  {
    "id": "2960",
    "name": "Krasnodar Pashkovsky International Airport",
    "city": "Krasnodar",
    "country": "Russia",
    "iata": "KRR",
    "icao": "URKK",
    "lat": 45.034698486328004,
    "lon": 39.170501708984,
    "altitudeFt": 118,
    "tzName": "Europe/Moscow",
    "routeCount": 21,
    "searchText": "krasnodar pashkovsky international airport krasnodar russia krr urkk"
  },
  {
    "id": "3304",
    "name": "Kuala Lumpur International Airport",
    "city": "Kuala Lumpur",
    "country": "Malaysia",
    "iata": "KUL",
    "icao": "WMKK",
    "lat": 2.7455799579619997,
    "lon": 101.70999908446998,
    "altitudeFt": 69,
    "tzName": "Asia/Kuala_Lumpur",
    "routeCount": 62,
    "searchText": "kuala lumpur international airport kuala lumpur malaysia kul wmkk"
  },
  {
    "id": "3382",
    "name": "Kunming Changshui International Airport",
    "city": "Kunming",
    "country": "China",
    "iata": "KMG",
    "icao": "ZPPP",
    "lat": 25.101944399999997,
    "lon": 102.9291667,
    "altitudeFt": 6903,
    "tzName": "Asia/Shanghai",
    "routeCount": 48,
    "searchText": "kunming changshui international airport kunming china kmg zppp"
  },
  {
    "id": "2176",
    "name": "Kuwait International Airport",
    "city": "Kuwait",
    "country": "Kuwait",
    "iata": "KWI",
    "icao": "OKBK",
    "lat": 29.226600646972656,
    "lon": 47.96889877319336,
    "altitudeFt": 206,
    "tzName": "Asia/Kuwait",
    "routeCount": 35,
    "searchText": "kuwait international airport kuwait kuwait kwi okbk"
  },
  {
    "id": "3697",
    "name": "La Guardia Airport",
    "city": "New York",
    "country": "United States",
    "iata": "LGA",
    "icao": "KLGA",
    "lat": 40.77719879,
    "lon": -73.87259674,
    "altitudeFt": 21,
    "tzName": "America/New_York",
    "routeCount": 34,
    "searchText": "la guardia airport new york united states lga klga"
  },
  {
    "id": "1055",
    "name": "Lanzarote Airport",
    "city": "Arrecife",
    "country": "Spain",
    "iata": "ACE",
    "icao": "GCRR",
    "lat": 28.945498999999998,
    "lon": -13.6052,
    "altitudeFt": 46,
    "tzName": "Atlantic/Canary",
    "routeCount": 42,
    "searchText": "lanzarote airport arrecife spain ace gcrr"
  },
  {
    "id": "3378",
    "name": "Lanzhou Zhongchuan Airport",
    "city": "Lanzhou",
    "country": "China",
    "iata": "LHW",
    "icao": "ZLLL",
    "lat": 36.5152015686,
    "lon": 103.620002747,
    "altitudeFt": 6388,
    "tzName": "Asia/Shanghai",
    "routeCount": 26,
    "searchText": "lanzhou zhongchuan airport lanzhou china lhw zlll"
  },
  {
    "id": "1197",
    "name": "Larnaca International Airport",
    "city": "Larnaca",
    "country": "Cyprus",
    "iata": "LCA",
    "icao": "LCLK",
    "lat": 34.875099182128906,
    "lon": 33.62490081787109,
    "altitudeFt": 8,
    "tzName": "Asia/Nicosia",
    "routeCount": 47,
    "searchText": "larnaca international airport larnaca cyprus lca lclk"
  },
  {
    "id": "1762",
    "name": "Las Américas International Airport",
    "city": "Santo Domingo",
    "country": "Dominican Republic",
    "iata": "SDQ",
    "icao": "MDSD",
    "lat": 18.42970085144,
    "lon": -69.668899536133,
    "altitudeFt": 59,
    "tzName": "America/Santo_Domingo",
    "routeCount": 22,
    "searchText": "las américas international airport santo domingo dominican republic sdq mdsd"
  },
  {
    "id": "517",
    "name": "Leeds Bradford Airport",
    "city": "Leeds",
    "country": "United Kingdom",
    "iata": "LBA",
    "icao": "EGNM",
    "lat": 53.86589813232422,
    "lon": -1.6605700254440308,
    "altitudeFt": 681,
    "tzName": "Europe/London",
    "routeCount": 40,
    "searchText": "leeds bradford airport leeds united kingdom lba egnm"
  },
  {
    "id": "1555",
    "name": "Leonardo da Vinci–Fiumicino Airport",
    "city": "Rome",
    "country": "Italy",
    "iata": "FCO",
    "icao": "LIRF",
    "lat": 41.800277799999996,
    "lon": 12.238888900000001,
    "altitudeFt": 13,
    "tzName": "Europe/Rome",
    "routeCount": 136,
    "searchText": "leonardo da vinci–fiumicino airport rome italy fco lirf"
  },
  {
    "id": "1084",
    "name": "Léopold Sédar Senghor International Airport",
    "city": "Dakar",
    "country": "Senegal",
    "iata": "DKR",
    "icao": "GOOY",
    "lat": 14.739700317382812,
    "lon": -17.49020004272461,
    "altitudeFt": 85,
    "tzName": "Africa/Dakar",
    "routeCount": 18,
    "searchText": "léopold sédar senghor international airport dakar senegal dkr gooy"
  },
  {
    "id": "193",
    "name": "Lester B. Pearson International Airport",
    "city": "Toronto",
    "country": "Canada",
    "iata": "YYZ",
    "icao": "CYYZ",
    "lat": 43.6772003174,
    "lon": -79.63059997559999,
    "altitudeFt": 569,
    "tzName": "America/Toronto",
    "routeCount": 96,
    "searchText": "lester b. pearson international airport toronto canada yyz cyyz"
  },
  {
    "id": "1824",
    "name": "Licenciado Benito Juarez International Airport",
    "city": "Mexico City",
    "country": "Mexico",
    "iata": "MEX",
    "icao": "MMMX",
    "lat": 19.4363,
    "lon": -99.072098,
    "altitudeFt": 7316,
    "tzName": "America/Mexico_City",
    "routeCount": 43,
    "searchText": "licenciado benito juarez international airport mexico city mexico mex mmmx"
  },
  {
    "id": "1399",
    "name": "Lille-Lesquin Airport",
    "city": "Lille",
    "country": "France",
    "iata": "LIL",
    "icao": "LFQQ",
    "lat": 50.563332,
    "lon": 3.0868860000000002,
    "altitudeFt": 157,
    "tzName": "Europe/Paris",
    "routeCount": 21,
    "searchText": "lille-lesquin airport lille france lil lfqq"
  },
  {
    "id": "3390",
    "name": "Liuting Airport",
    "city": "Qingdao",
    "country": "China",
    "iata": "TAO",
    "icao": "ZSQD",
    "lat": 36.2661018372,
    "lon": 120.374000549,
    "altitudeFt": 33,
    "tzName": "Asia/Shanghai",
    "routeCount": 39,
    "searchText": "liuting airport qingdao china tao zsqd"
  },
  {
    "id": "491",
    "name": "Liverpool John Lennon Airport",
    "city": "Liverpool",
    "country": "United Kingdom",
    "iata": "LPL",
    "icao": "EGGP",
    "lat": 53.33359909057617,
    "lon": -2.849720001220703,
    "altitudeFt": 80,
    "tzName": "Europe/London",
    "routeCount": 33,
    "searchText": "liverpool john lennon airport liverpool united kingdom lpl eggp"
  },
  {
    "id": "503",
    "name": "London City Airport",
    "city": "London",
    "country": "United Kingdom",
    "iata": "LCY",
    "icao": "EGLC",
    "lat": 51.505299,
    "lon": 0.055277999999999994,
    "altitudeFt": 19,
    "tzName": "Europe/London",
    "routeCount": 25,
    "searchText": "london city airport london united kingdom lcy eglc"
  },
  {
    "id": "502",
    "name": "London Gatwick Airport",
    "city": "London",
    "country": "United Kingdom",
    "iata": "LGW",
    "icao": "EGKK",
    "lat": 51.148102,
    "lon": -0.190278,
    "altitudeFt": 202,
    "tzName": "Europe/London",
    "routeCount": 103,
    "searchText": "london gatwick airport london united kingdom lgw egkk"
  },
  {
    "id": "507",
    "name": "London Heathrow Airport",
    "city": "London",
    "country": "United Kingdom",
    "iata": "LHR",
    "icao": "EGLL",
    "lat": 51.4706,
    "lon": -0.461941,
    "altitudeFt": 83,
    "tzName": "Europe/London",
    "routeCount": 150,
    "searchText": "london heathrow airport london united kingdom lhr egll"
  },
  {
    "id": "492",
    "name": "London Luton Airport",
    "city": "London",
    "country": "United Kingdom",
    "iata": "LTN",
    "icao": "EGGW",
    "lat": 51.87469863891602,
    "lon": -0.36833301186561584,
    "altitudeFt": 526,
    "tzName": "Europe/London",
    "routeCount": 50,
    "searchText": "london luton airport london united kingdom ltn eggw"
  },
  {
    "id": "548",
    "name": "London Stansted Airport",
    "city": "London",
    "country": "United Kingdom",
    "iata": "STN",
    "icao": "EGSS",
    "lat": 51.8849983215,
    "lon": 0.23499999940400002,
    "altitudeFt": 348,
    "tzName": "Europe/London",
    "routeCount": 74,
    "searchText": "london stansted airport london united kingdom stn egss"
  },
  {
    "id": "3394",
    "name": "Longdongbao Airport",
    "city": "Guiyang",
    "country": "China",
    "iata": "KWE",
    "icao": "ZUGY",
    "lat": 26.53849983215332,
    "lon": 106.8010025024414,
    "altitudeFt": 3736,
    "tzName": "Asia/Shanghai",
    "routeCount": 34,
    "searchText": "longdongbao airport guiyang china kwe zugy"
  },
  {
    "id": "3484",
    "name": "Los Angeles International Airport",
    "city": "Los Angeles",
    "country": "United States",
    "iata": "LAX",
    "icao": "KLAX",
    "lat": 33.94250107,
    "lon": -118.40799709999999,
    "altitudeFt": 125,
    "tzName": "America/Los_Angeles",
    "routeCount": 90,
    "searchText": "los angeles international airport los angeles united states lax klax"
  },
  {
    "id": "3861",
    "name": "Louis Armstrong New Orleans International Airport",
    "city": "New Orleans",
    "country": "United States",
    "iata": "MSY",
    "icao": "KMSY",
    "lat": 29.99340057373047,
    "lon": -90.25800323486328,
    "altitudeFt": 4,
    "tzName": "America/Chicago",
    "routeCount": 37,
    "searchText": "louis armstrong new orleans international airport new orleans united states msy kmsy"
  },
  {
    "id": "2890",
    "name": "Luis Munoz Marin International Airport",
    "city": "San Juan",
    "country": "Puerto Rico",
    "iata": "SJU",
    "icao": "TJSJ",
    "lat": 18.4393997192,
    "lon": -66.0018005371,
    "altitudeFt": 9,
    "tzName": "America/Puerto_Rico",
    "routeCount": 25,
    "searchText": "luis munoz marin international airport san juan puerto rico sju tjsj"
  },
  {
    "id": "629",
    "name": "Luxembourg-Findel International Airport",
    "city": "Luxemburg",
    "country": "Luxembourg",
    "iata": "LUX",
    "icao": "ELLX",
    "lat": 49.6233333,
    "lon": 6.204444400000001,
    "altitudeFt": 1234,
    "tzName": "Europe/Luxembourg",
    "routeCount": 44,
    "searchText": "luxembourg-findel international airport luxemburg luxembourg lux ellx"
  },
  {
    "id": "1953",
    "name": "Lynden Pindling International Airport",
    "city": "Nassau",
    "country": "Bahamas",
    "iata": "NAS",
    "icao": "MYNN",
    "lat": 25.0389995575,
    "lon": -77.46620178219999,
    "altitudeFt": 16,
    "tzName": "America/Nassau",
    "routeCount": 19,
    "searchText": "lynden pindling international airport nassau bahamas nas mynn"
  },
  {
    "id": "1335",
    "name": "Lyon Saint-Exupéry Airport",
    "city": "Lyon",
    "country": "France",
    "iata": "LYS",
    "icao": "LFLL",
    "lat": 45.725556,
    "lon": 5.081111,
    "altitudeFt": 821,
    "tzName": "Europe/Paris",
    "routeCount": 49,
    "searchText": "lyon saint-exupéry airport lyon france lys lfll"
  },
  {
    "id": "3121",
    "name": "Macau International Airport",
    "city": "Macau",
    "country": "Macau",
    "iata": "MFM",
    "icao": "VMMC",
    "lat": 22.149599,
    "lon": 113.592003,
    "altitudeFt": 20,
    "tzName": "Asia/Macau",
    "routeCount": 30,
    "searchText": "macau international airport macau macau mfm vmmc"
  },
  {
    "id": "4091",
    "name": "Madeira Airport",
    "city": "Funchal",
    "country": "Portugal",
    "iata": "FNC",
    "icao": "LPMA",
    "lat": 32.697899,
    "lon": -16.7745,
    "altitudeFt": 192,
    "tzName": "Europe/Lisbon",
    "routeCount": 28,
    "searchText": "madeira airport funchal portugal fnc lpma"
  },
  {
    "id": "1230",
    "name": "Málaga Airport",
    "city": "Malaga",
    "country": "Spain",
    "iata": "AGP",
    "icao": "LEMG",
    "lat": 36.67490005493164,
    "lon": -4.499110221862793,
    "altitudeFt": 53,
    "tzName": "Europe/Madrid",
    "routeCount": 87,
    "searchText": "málaga airport malaga spain agp lemg"
  },
  {
    "id": "1524",
    "name": "Malpensa International Airport",
    "city": "Milano",
    "country": "Italy",
    "iata": "MXP",
    "icao": "LIMC",
    "lat": 45.6306,
    "lon": 8.728110000000001,
    "altitudeFt": 768,
    "tzName": "Europe/Rome",
    "routeCount": 99,
    "searchText": "malpensa international airport milano italy mxp limc"
  },
  {
    "id": "1606",
    "name": "Malta International Airport",
    "city": "Malta",
    "country": "Malta",
    "iata": "MLA",
    "icao": "LMML",
    "lat": 35.857498,
    "lon": 14.4775,
    "altitudeFt": 300,
    "tzName": "Europe/Malta",
    "routeCount": 64,
    "searchText": "malta international airport malta malta mla lmml"
  },
  {
    "id": "478",
    "name": "Manchester Airport",
    "city": "Manchester",
    "country": "United Kingdom",
    "iata": "MAN",
    "icao": "EGCC",
    "lat": 53.35369873046875,
    "lon": -2.2749500274658203,
    "altitudeFt": 257,
    "tzName": "Europe/London",
    "routeCount": 103,
    "searchText": "manchester airport manchester united kingdom man egcc"
  },
  {
    "id": "1353",
    "name": "Marseille Provence Airport",
    "city": "Marseille",
    "country": "France",
    "iata": "MRS",
    "icao": "LFML",
    "lat": 43.439271921999996,
    "lon": 5.22142410278,
    "altitudeFt": 74,
    "tzName": "Europe/Paris",
    "routeCount": 50,
    "searchText": "marseille provence airport marseille france mrs lfml"
  },
  {
    "id": "4331",
    "name": "Mashhad International Airport",
    "city": "Mashhad",
    "country": "Iran",
    "iata": "MHD",
    "icao": "OIMM",
    "lat": 36.235198974609375,
    "lon": 59.64099884033203,
    "altitudeFt": 3263,
    "tzName": "Asia/Tehran",
    "routeCount": 13,
    "searchText": "mashhad international airport mashhad iran mhd oimm"
  },
  {
    "id": "3877",
    "name": "McCarran International Airport",
    "city": "Las Vegas",
    "country": "United States",
    "iata": "LAS",
    "icao": "KLAS",
    "lat": 36.08010101,
    "lon": -115.15200039999999,
    "altitudeFt": 2181,
    "tzName": "America/Los_Angeles",
    "routeCount": 62,
    "searchText": "mccarran international airport las vegas united states las klas"
  },
  {
    "id": "2131",
    "name": "Mehrabad International Airport",
    "city": "Teheran",
    "country": "Iran",
    "iata": "THR",
    "icao": "OIII",
    "lat": 35.68920135498047,
    "lon": 51.31340026855469,
    "altitudeFt": 3962,
    "tzName": "Asia/Tehran",
    "routeCount": 3,
    "searchText": "mehrabad international airport teheran iran thr oiii"
  },
  {
    "id": "3339",
    "name": "Melbourne International Airport",
    "city": "Melbourne",
    "country": "Australia",
    "iata": "MEL",
    "icao": "YMML",
    "lat": -37.673302,
    "lon": 144.843002,
    "altitudeFt": 434,
    "tzName": "Australia/Hobart",
    "routeCount": 24,
    "searchText": "melbourne international airport melbourne australia mel ymml"
  },
  {
    "id": "3473",
    "name": "Memphis International Airport",
    "city": "Memphis",
    "country": "United States",
    "iata": "MEM",
    "icao": "KMEM",
    "lat": 35.04240036010742,
    "lon": -89.97669982910156,
    "altitudeFt": 341,
    "tzName": "America/Chicago",
    "routeCount": 28,
    "searchText": "memphis international airport memphis united states mem kmem"
  },
  {
    "id": "1075",
    "name": "Menara Airport",
    "city": "Marrakech",
    "country": "Morocco",
    "iata": "RAK",
    "icao": "GMMX",
    "lat": 31.6068992615,
    "lon": -8.036299705510002,
    "altitudeFt": 1545,
    "tzName": "Africa/Casablanca",
    "routeCount": 44,
    "searchText": "menara airport marrakech morocco rak gmmx"
  },
  {
    "id": "3453",
    "name": "Metropolitan Oakland International Airport",
    "city": "Oakland",
    "country": "United States",
    "iata": "OAK",
    "icao": "KOAK",
    "lat": 37.721298,
    "lon": -122.221001,
    "altitudeFt": 9,
    "tzName": "America/Los_Angeles",
    "routeCount": 21,
    "searchText": "metropolitan oakland international airport oakland united states oak koak"
  },
  {
    "id": "3576",
    "name": "Miami International Airport",
    "city": "Miami",
    "country": "United States",
    "iata": "MIA",
    "icao": "KMIA",
    "lat": 25.79319953918457,
    "lon": -80.29060363769531,
    "altitudeFt": 8,
    "tzName": "America/New_York",
    "routeCount": 71,
    "searchText": "miami international airport miami united states mia kmia"
  },
  {
    "id": "1529",
    "name": "Milano Linate Airport",
    "city": "Milan",
    "country": "Italy",
    "iata": "LIN",
    "icao": "LIML",
    "lat": 45.445099,
    "lon": 9.27674,
    "altitudeFt": 353,
    "tzName": "Europe/Rome",
    "routeCount": 27,
    "searchText": "milano linate airport milan italy lin liml"
  },
  {
    "id": "3988",
    "name": "Ministro Pistarini International Airport",
    "city": "Buenos Aires",
    "country": "Argentina",
    "iata": "EZE",
    "icao": "SAEZ",
    "lat": -34.8222,
    "lon": -58.5358,
    "altitudeFt": 67,
    "tzName": "America/Buenos_Aires",
    "routeCount": 24,
    "searchText": "ministro pistarini international airport buenos aires argentina eze saez"
  },
  {
    "id": "3858",
    "name": "Minneapolis-St Paul International/Wold-Chamberlain Airport",
    "city": "Minneapolis",
    "country": "United States",
    "iata": "MSP",
    "icao": "KMSP",
    "lat": 44.882,
    "lon": -93.221802,
    "altitudeFt": 841,
    "tzName": "America/Chicago",
    "routeCount": 57,
    "searchText": "minneapolis-st paul international/wold-chamberlain airport minneapolis united states msp kmsp"
  },
  {
    "id": "2954",
    "name": "Minsk National Airport",
    "city": "Minsk 2",
    "country": "Belarus",
    "iata": "MSQ",
    "icao": "UMMS",
    "lat": 53.882499694824,
    "lon": 28.030700683594,
    "altitudeFt": 670,
    "tzName": "Europe/Minsk",
    "routeCount": 34,
    "searchText": "minsk national airport minsk 2 belarus msq umms"
  },
  {
    "id": "1074",
    "name": "Mohammed V International Airport",
    "city": "Casablanca",
    "country": "Morocco",
    "iata": "CMN",
    "icao": "GMMN",
    "lat": 33.36750030517578,
    "lon": -7.589970111846924,
    "altitudeFt": 656,
    "tzName": "Africa/Casablanca",
    "routeCount": 50,
    "searchText": "mohammed v international airport casablanca morocco cmn gmmn"
  },
  {
    "id": "1892",
    "name": "Monseñor Óscar Arnulfo Romero International Airport",
    "city": "San Salvador",
    "country": "El Salvador",
    "iata": "SAL",
    "icao": "MSLP",
    "lat": 13.4409,
    "lon": -89.055702,
    "altitudeFt": 101,
    "tzName": "America/El_Salvador",
    "routeCount": 21,
    "searchText": "monseñor óscar arnulfo romero international airport san salvador el salvador sal mslp"
  },
  {
    "id": "146",
    "name": "Montreal / Pierre Elliott Trudeau International Airport",
    "city": "Montreal",
    "country": "Canada",
    "iata": "YUL",
    "icao": "CYUL",
    "lat": 45.4706001282,
    "lon": -73.7407989502,
    "altitudeFt": 118,
    "tzName": "America/Toronto",
    "routeCount": 56,
    "searchText": "montreal / pierre elliott trudeau international airport montreal canada yul cyul"
  },
  {
    "id": "657",
    "name": "Moss Airport, Rygge",
    "city": "Rygge",
    "country": "Norway",
    "iata": "RYG",
    "icao": "ENRY",
    "lat": 59.378817000000005,
    "lon": 10.785439,
    "altitudeFt": 174,
    "tzName": "Europe/Oslo",
    "routeCount": 27,
    "searchText": "moss airport, rygge rygge norway ryg enry"
  },
  {
    "id": "346",
    "name": "Munich Airport",
    "city": "Munich",
    "country": "Germany",
    "iata": "MUC",
    "icao": "EDDM",
    "lat": 48.353802,
    "lon": 11.7861,
    "altitudeFt": 1487,
    "tzName": "Europe/Berlin",
    "routeCount": 139,
    "searchText": "munich airport munich germany muc eddm"
  },
  {
    "id": "273",
    "name": "Murtala Muhammed International Airport",
    "city": "Lagos",
    "country": "Nigeria",
    "iata": "LOS",
    "icao": "DNMM",
    "lat": 6.5773701667785645,
    "lon": 3.321160078048706,
    "altitudeFt": 135,
    "tzName": "Africa/Lagos",
    "routeCount": 22,
    "searchText": "murtala muhammed international airport lagos nigeria los dnmm"
  },
  {
    "id": "2194",
    "name": "Muscat International Airport",
    "city": "Muscat",
    "country": "Oman",
    "iata": "MCT",
    "icao": "OOMS",
    "lat": 23.593299865722656,
    "lon": 58.284400939941406,
    "altitudeFt": 48,
    "tzName": "Asia/Muscat",
    "routeCount": 35,
    "searchText": "muscat international airport muscat oman mct ooms"
  },
  {
    "id": "2384",
    "name": "Naha Airport",
    "city": "Okinawa",
    "country": "Japan",
    "iata": "OKA",
    "icao": "ROAH",
    "lat": 26.1958007812,
    "lon": 127.64600372299999,
    "altitudeFt": 12,
    "tzName": "Asia/Tokyo",
    "routeCount": 13,
    "searchText": "naha airport okinawa japan oka roah"
  },
  {
    "id": "3384",
    "name": "Nanchang Changbei International Airport",
    "city": "Nanchang",
    "country": "China",
    "iata": "KHN",
    "icao": "ZSCN",
    "lat": 28.864999771118164,
    "lon": 115.9000015258789,
    "altitudeFt": 143,
    "tzName": "Asia/Shanghai",
    "routeCount": 35,
    "searchText": "nanchang changbei international airport nanchang china khn zscn"
  },
  {
    "id": "3388",
    "name": "Nanjing Lukou Airport",
    "city": "Nanjing",
    "country": "China",
    "iata": "NKG",
    "icao": "ZSNJ",
    "lat": 31.742000579833984,
    "lon": 118.86199951171876,
    "altitudeFt": 49,
    "tzName": "Asia/Shanghai",
    "routeCount": 39,
    "searchText": "nanjing lukou airport nanjing china nkg zsnj"
  },
  {
    "id": "3373",
    "name": "Nanning Wuxu Airport",
    "city": "Nanning",
    "country": "China",
    "iata": "NNG",
    "icao": "ZGNN",
    "lat": 22.60829925537109,
    "lon": 108.1719970703125,
    "altitudeFt": 421,
    "tzName": "Asia/Shanghai",
    "routeCount": 34,
    "searchText": "nanning wuxu airport nanning china nng zgnn"
  },
  {
    "id": "1418",
    "name": "Nantes Atlantique Airport",
    "city": "Nantes",
    "country": "France",
    "iata": "NTE",
    "icao": "LFRS",
    "lat": 47.15319824220001,
    "lon": -1.61073005199,
    "altitudeFt": 90,
    "tzName": "Europe/Paris",
    "routeCount": 44,
    "searchText": "nantes atlantique airport nantes france nte lfrs"
  },
  {
    "id": "1561",
    "name": "Naples International Airport",
    "city": "Naples",
    "country": "Italy",
    "iata": "NAP",
    "icao": "LIRN",
    "lat": 40.886002000000005,
    "lon": 14.2908,
    "altitudeFt": 294,
    "tzName": "Europe/Rome",
    "routeCount": 44,
    "searchText": "naples international airport naples italy nap lirn"
  },
  {
    "id": "2279",
    "name": "Narita International Airport",
    "city": "Tokyo",
    "country": "Japan",
    "iata": "NRT",
    "icao": "RJAA",
    "lat": 35.764701843299996,
    "lon": 140.386001587,
    "altitudeFt": 141,
    "tzName": "Asia/Tokyo",
    "routeCount": 82,
    "searchText": "narita international airport tokyo japan nrt rjaa"
  },
  {
    "id": "3690",
    "name": "Nashville International Airport",
    "city": "Nashville",
    "country": "United States",
    "iata": "BNA",
    "icao": "KBNA",
    "lat": 36.1245002746582,
    "lon": -86.6781997680664,
    "altitudeFt": 599,
    "tzName": "America/Chicago",
    "routeCount": 38,
    "searchText": "nashville international airport nashville united states bna kbna"
  },
  {
    "id": "3043",
    "name": "Netaji Subhash Chandra Bose International Airport",
    "city": "Kolkata",
    "country": "India",
    "iata": "CCU",
    "icao": "VECC",
    "lat": 22.654699325561523,
    "lon": 88.44670104980469,
    "altitudeFt": 16,
    "tzName": "Asia/Calcutta",
    "routeCount": 13,
    "searchText": "netaji subhash chandra bose international airport kolkata india ccu vecc"
  },
  {
    "id": "2287",
    "name": "New Chitose Airport",
    "city": "Sapporo",
    "country": "Japan",
    "iata": "CTS",
    "icao": "RJCC",
    "lat": 42.77519989013672,
    "lon": 141.69200134277344,
    "altitudeFt": 82,
    "tzName": "Asia/Tokyo",
    "routeCount": 14,
    "searchText": "new chitose airport sapporo japan cts rjcc"
  },
  {
    "id": "3494",
    "name": "Newark Liberty International Airport",
    "city": "Newark",
    "country": "United States",
    "iata": "EWR",
    "icao": "KEWR",
    "lat": 40.69250106811523,
    "lon": -74.168701171875,
    "altitudeFt": 18,
    "tzName": "America/New_York",
    "routeCount": 97,
    "searchText": "newark liberty international airport newark united states ewr kewr"
  },
  {
    "id": "521",
    "name": "Newcastle Airport",
    "city": "Newcastle",
    "country": "United Kingdom",
    "iata": "NCL",
    "icao": "EGNT",
    "lat": 55.037498474121094,
    "lon": -1.6916699409484863,
    "altitudeFt": 266,
    "tzName": "Europe/London",
    "routeCount": 35,
    "searchText": "newcastle airport newcastle united kingdom ncl egnt"
  },
  {
    "id": "3940",
    "name": "Ngurah Rai (Bali) International Airport",
    "city": "Denpasar",
    "country": "Indonesia",
    "iata": "DPS",
    "icao": "WADD",
    "lat": -8.7481698989868,
    "lon": 115.16699981689,
    "altitudeFt": 14,
    "tzName": "Asia/Makassar",
    "routeCount": 21,
    "searchText": "ngurah rai (bali) international airport denpasar indonesia dps wadd"
  },
  {
    "id": "1354",
    "name": "Nice-Côte d'Azur Airport",
    "city": "Nice",
    "country": "France",
    "iata": "NCE",
    "icao": "LFMN",
    "lat": 43.658401489300005,
    "lon": 7.215869903560001,
    "altitudeFt": 12,
    "tzName": "Europe/Paris",
    "routeCount": 70,
    "searchText": "nice-côte d'azur airport nice france nce lfmn"
  },
  {
    "id": "3387",
    "name": "Ningbo Lishe International Airport",
    "city": "Ninbo",
    "country": "China",
    "iata": "NGB",
    "icao": "ZSNB",
    "lat": 29.82670021057129,
    "lon": 121.46199798583984,
    "altitudeFt": 13,
    "tzName": "Asia/Shanghai",
    "routeCount": 32,
    "searchText": "ningbo lishe international airport ninbo china ngb zsnb"
  },
  {
    "id": "2397",
    "name": "Ninoy Aquino International Airport",
    "city": "Manila",
    "country": "Philippines",
    "iata": "MNL",
    "icao": "RPLL",
    "lat": 14.5086,
    "lon": 121.019997,
    "altitudeFt": 75,
    "tzName": "Asia/Manila",
    "routeCount": 40,
    "searchText": "ninoy aquino international airport manila philippines mnl rpll"
  },
  {
    "id": "3199",
    "name": "Noi Bai International Airport",
    "city": "Hanoi",
    "country": "Vietnam",
    "iata": "HAN",
    "icao": "VVNB",
    "lat": 21.221200942993164,
    "lon": 105.80699920654295,
    "altitudeFt": 39,
    "tzName": "Asia/Saigon",
    "routeCount": 26,
    "searchText": "noi bai international airport hanoi vietnam han vvnb"
  },
  {
    "id": "3748",
    "name": "Norman Y. Mineta San Jose International Airport",
    "city": "San Jose",
    "country": "United States",
    "iata": "SJC",
    "icao": "KSJC",
    "lat": 37.362598,
    "lon": -121.929001,
    "altitudeFt": 62,
    "tzName": "America/Los_Angeles",
    "routeCount": 20,
    "searchText": "norman y. mineta san jose international airport san jose united states sjc ksjc"
  },
  {
    "id": "347",
    "name": "Nuremberg Airport",
    "city": "Nuernberg",
    "country": "Germany",
    "iata": "NUE",
    "icao": "EDDN",
    "lat": 49.498699,
    "lon": 11.078056,
    "altitudeFt": 1046,
    "tzName": "Europe/Berlin",
    "routeCount": 27,
    "searchText": "nuremberg airport nuernberg germany nue eddn"
  },
  {
    "id": "1520",
    "name": "Olbia Costa Smeralda Airport",
    "city": "Olbia",
    "country": "Italy",
    "iata": "OLB",
    "icao": "LIEO",
    "lat": 40.898701,
    "lon": 9.51763,
    "altitudeFt": 37,
    "tzName": "Europe/Rome",
    "routeCount": 27,
    "searchText": "olbia costa smeralda airport olbia italy olb lieo"
  },
  {
    "id": "813",
    "name": "OR Tambo International Airport",
    "city": "Johannesburg",
    "country": "South Africa",
    "iata": "JNB",
    "icao": "FAOR",
    "lat": -26.1392,
    "lon": 28.246,
    "altitudeFt": 5558,
    "tzName": "Africa/Johannesburg",
    "routeCount": 29,
    "searchText": "or tambo international airport johannesburg south africa jnb faor"
  },
  {
    "id": "3878",
    "name": "Orlando International Airport",
    "city": "Orlando",
    "country": "United States",
    "iata": "MCO",
    "icao": "KMCO",
    "lat": 28.429399490356445,
    "lon": -81.30899810791016,
    "altitudeFt": 96,
    "tzName": "America/New_York",
    "routeCount": 61,
    "searchText": "orlando international airport orlando united states mco kmco"
  },
  {
    "id": "4167",
    "name": "Orlando Sanford International Airport",
    "city": "Sanford",
    "country": "United States",
    "iata": "SFB",
    "icao": "KSFB",
    "lat": 28.7775993347168,
    "lon": -81.23750305175781,
    "altitudeFt": 55,
    "tzName": "America/New_York",
    "routeCount": 4,
    "searchText": "orlando sanford international airport sanford united states sfb ksfb"
  },
  {
    "id": "644",
    "name": "Oslo Lufthavn",
    "city": "Oslo",
    "country": "Norway",
    "iata": "OSL",
    "icao": "ENGM",
    "lat": 60.121,
    "lon": 11.0502,
    "altitudeFt": 681,
    "tzName": "Europe/Oslo",
    "routeCount": 69,
    "searchText": "oslo lufthavn oslo norway osl engm"
  },
  {
    "id": "3998",
    "name": "Palma De Mallorca Airport",
    "city": "Palma de Mallorca",
    "country": "Spain",
    "iata": "PMI",
    "icao": "LEPA",
    "lat": 39.551700591999996,
    "lon": 2.73881006241,
    "altitudeFt": 27,
    "tzName": "Europe/Madrid",
    "routeCount": 75,
    "searchText": "palma de mallorca airport palma de mallorca spain pmi lepa"
  },
  {
    "id": "1367",
    "name": "Paris Beauvais Tillé Airport",
    "city": "Beauvais",
    "country": "France",
    "iata": "BVA",
    "icao": "LFOB",
    "lat": 49.45439910888672,
    "lon": 2.1127800941467285,
    "altitudeFt": 359,
    "tzName": "Europe/Paris",
    "routeCount": 35,
    "searchText": "paris beauvais tillé airport beauvais france bva lfob"
  },
  {
    "id": "1386",
    "name": "Paris-Orly Airport",
    "city": "Paris",
    "country": "France",
    "iata": "ORY",
    "icao": "LFPO",
    "lat": 48.7233333,
    "lon": 2.3794444,
    "altitudeFt": 291,
    "tzName": "Europe/Paris",
    "routeCount": 61,
    "searchText": "paris-orly airport paris france ory lfpo"
  },
  {
    "id": "3351",
    "name": "Perth International Airport",
    "city": "Perth",
    "country": "Australia",
    "iata": "PER",
    "icao": "YPPH",
    "lat": -31.94029998779297,
    "lon": 115.96700286865234,
    "altitudeFt": 67,
    "tzName": "Australia/Perth",
    "routeCount": 17,
    "searchText": "perth international airport perth australia per ypph"
  },
  {
    "id": "3752",
    "name": "Philadelphia International Airport",
    "city": "Philadelphia",
    "country": "United States",
    "iata": "PHL",
    "icao": "KPHL",
    "lat": 39.87189865112305,
    "lon": -75.24109649658203,
    "altitudeFt": 36,
    "tzName": "America/New_York",
    "routeCount": 69,
    "searchText": "philadelphia international airport philadelphia united states phl kphl"
  },
  {
    "id": "3462",
    "name": "Phoenix Sky Harbor International Airport",
    "city": "Phoenix",
    "country": "United States",
    "iata": "PHX",
    "icao": "KPHX",
    "lat": 33.43429946899414,
    "lon": -112.01200103759766,
    "altitudeFt": 1135,
    "tzName": "America/Phoenix",
    "routeCount": 52,
    "searchText": "phoenix sky harbor international airport phoenix united states phx kphx"
  },
  {
    "id": "6505",
    "name": "Phoenix-Mesa-Gateway Airport",
    "city": "Mesa",
    "country": "United States",
    "iata": "AZA",
    "icao": "KIWA",
    "lat": 33.30780029,
    "lon": -111.65499879999999,
    "altitudeFt": 1382,
    "tzName": "America/Phoenix",
    "routeCount": 2,
    "searchText": "phoenix-mesa-gateway airport mesa united states aza kiwa"
  },
  {
    "id": "3179",
    "name": "Phuket International Airport",
    "city": "Phuket",
    "country": "Thailand",
    "iata": "HKT",
    "icao": "VTSP",
    "lat": 8.1132,
    "lon": 98.316902,
    "altitudeFt": 82,
    "tzName": "Asia/Bangkok",
    "routeCount": 27,
    "searchText": "phuket international airport phuket thailand hkt vtsp"
  },
  {
    "id": "1562",
    "name": "Pisa International Airport",
    "city": "Pisa",
    "country": "Italy",
    "iata": "PSA",
    "icao": "LIRP",
    "lat": 43.683899,
    "lon": 10.3927,
    "altitudeFt": 6,
    "tzName": "Europe/Rome",
    "routeCount": 54,
    "searchText": "pisa international airport pisa italy psa lirp"
  },
  {
    "id": "3570",
    "name": "Pittsburgh International Airport",
    "city": "Pittsburgh",
    "country": "United States",
    "iata": "PIT",
    "icao": "KPIT",
    "lat": 40.49150085,
    "lon": -80.23290253,
    "altitudeFt": 1203,
    "tzName": "America/New_York",
    "routeCount": 36,
    "searchText": "pittsburgh international airport pittsburgh united states pit kpit"
  },
  {
    "id": "5",
    "name": "Port Moresby Jacksons International Airport",
    "city": "Port Moresby",
    "country": "Papua New Guinea",
    "iata": "POM",
    "icao": "AYPY",
    "lat": -9.443380355834961,
    "lon": 147.22000122070312,
    "altitudeFt": 146,
    "tzName": "Pacific/Port_Moresby",
    "routeCount": 8,
    "searchText": "port moresby jacksons international airport port moresby papua new guinea pom aypy"
  },
  {
    "id": "3720",
    "name": "Portland International Airport",
    "city": "Portland",
    "country": "United States",
    "iata": "PDX",
    "icao": "KPDX",
    "lat": 45.58869934,
    "lon": -122.59799960000001,
    "altitudeFt": 31,
    "tzName": "America/Los_Angeles",
    "routeCount": 32,
    "searchText": "portland international airport portland united states pdx kpdx"
  },
  {
    "id": "2531",
    "name": "Presidente Juscelino Kubistschek International Airport",
    "city": "Brasilia",
    "country": "Brazil",
    "iata": "BSB",
    "icao": "SBBR",
    "lat": -15.86916732788086,
    "lon": -47.92083358764648,
    "altitudeFt": 3497,
    "tzName": "America/Sao_Paulo",
    "routeCount": 11,
    "searchText": "presidente juscelino kubistschek international airport brasilia brazil bsb sbbr"
  },
  {
    "id": "2074",
    "name": "Prince Mohammad Bin Abdulaziz Airport",
    "city": "Madinah",
    "country": "Saudi Arabia",
    "iata": "MED",
    "icao": "OEMA",
    "lat": 24.5534,
    "lon": 39.705101,
    "altitudeFt": 2151,
    "tzName": "Asia/Riyadh",
    "routeCount": 25,
    "searchText": "prince mohammad bin abdulaziz airport madinah saudi arabia med oema"
  },
  {
    "id": "2899",
    "name": "Princess Juliana International Airport",
    "city": "Philipsburg",
    "country": "Netherlands Antilles",
    "iata": "SXM",
    "icao": "TNCM",
    "lat": 18.0410003662,
    "lon": -63.108898162799996,
    "altitudeFt": 13,
    "tzName": "America/Curacao",
    "routeCount": 17,
    "searchText": "princess juliana international airport philipsburg netherlands antilles sxm tncm"
  },
  {
    "id": "2948",
    "name": "Pulkovo Airport",
    "city": "St. Petersburg",
    "country": "Russia",
    "iata": "LED",
    "icao": "ULLI",
    "lat": 59.80030059814453,
    "lon": 30.26250076293945,
    "altitudeFt": 78,
    "tzName": "Europe/Moscow",
    "routeCount": 55,
    "searchText": "pulkovo airport st. petersburg russia led ulli"
  },
  {
    "id": "1760",
    "name": "Punta Cana International Airport",
    "city": "Punta Cana",
    "country": "Dominican Republic",
    "iata": "PUJ",
    "icao": "MDPC",
    "lat": 18.567399978599997,
    "lon": -68.36340332030001,
    "altitudeFt": 47,
    "tzName": "America/Santo_Domingo",
    "routeCount": 44,
    "searchText": "punta cana international airport punta cana dominican republic puj mdpc"
  },
  {
    "id": "951",
    "name": "Quatro de Fevereiro Airport",
    "city": "Luanda",
    "country": "Angola",
    "iata": "LAD",
    "icao": "FNLU",
    "lat": -8.858369999999999,
    "lon": 13.2312,
    "altitudeFt": 243,
    "tzName": "Africa/Luanda",
    "routeCount": 17,
    "searchText": "quatro de fevereiro airport luanda angola lad fnlu"
  },
  {
    "id": "2170",
    "name": "Queen Alia International Airport",
    "city": "Amman",
    "country": "Jordan",
    "iata": "AMM",
    "icao": "OJAI",
    "lat": 31.7226009369,
    "lon": 35.9931983948,
    "altitudeFt": 2395,
    "tzName": "Asia/Amman",
    "routeCount": 42,
    "searchText": "queen alia international airport amman jordan amm ojai"
  },
  {
    "id": "3626",
    "name": "Raleigh Durham International Airport",
    "city": "Raleigh-durham",
    "country": "United States",
    "iata": "RDU",
    "icao": "KRDU",
    "lat": 35.877601623535156,
    "lon": -78.7874984741211,
    "altitudeFt": 435,
    "tzName": "America/New_York",
    "routeCount": 37,
    "searchText": "raleigh durham international airport raleigh-durham united states rdu krdu"
  },
  {
    "id": "3953",
    "name": "Riga International Airport",
    "city": "Riga",
    "country": "Latvia",
    "iata": "RIX",
    "icao": "EVRA",
    "lat": 56.92359924316406,
    "lon": 23.971099853515625,
    "altitudeFt": 36,
    "tzName": "Europe/Riga",
    "routeCount": 59,
    "searchText": "riga international airport riga latvia rix evra"
  },
  {
    "id": "2560",
    "name": "Rio Galeão – Tom Jobim International Airport",
    "city": "Rio De Janeiro",
    "country": "Brazil",
    "iata": "GIG",
    "icao": "SBGL",
    "lat": -22.809999465900002,
    "lon": -43.2505569458,
    "altitudeFt": 28,
    "tzName": "America/Sao_Paulo",
    "routeCount": 28,
    "searchText": "rio galeão – tom jobim international airport rio de janeiro brazil gig sbgl"
  },
  {
    "id": "3520",
    "name": "Ronald Reagan Washington National Airport",
    "city": "Washington",
    "country": "United States",
    "iata": "DCA",
    "icao": "KDCA",
    "lat": 38.8521,
    "lon": -77.037697,
    "altitudeFt": 15,
    "tzName": "America/New_York",
    "routeCount": 45,
    "searchText": "ronald reagan washington national airport washington united states dca kdca"
  },
  {
    "id": "591",
    "name": "Rotterdam The Hague Airport",
    "city": "Rotterdam",
    "country": "Netherlands",
    "iata": "RTM",
    "icao": "EHRD",
    "lat": 51.956902,
    "lon": 4.43722,
    "altitudeFt": -15,
    "tzName": "Europe/Amsterdam",
    "routeCount": 25,
    "searchText": "rotterdam the hague airport rotterdam netherlands rtm ehrd"
  },
  {
    "id": "4317",
    "name": "Sabiha Gökçen International Airport",
    "city": "Istanbul",
    "country": "Turkey",
    "iata": "SAW",
    "icao": "LTFJ",
    "lat": 40.898601532,
    "lon": 29.3092002869,
    "altitudeFt": 312,
    "tzName": "Europe/Istanbul",
    "routeCount": 56,
    "searchText": "sabiha gökçen international airport istanbul turkey saw ltfj"
  },
  {
    "id": "3536",
    "name": "Salt Lake City International Airport",
    "city": "Salt Lake City",
    "country": "United States",
    "iata": "SLC",
    "icao": "KSLC",
    "lat": 40.78839874267578,
    "lon": -111.97799682617188,
    "altitudeFt": 4227,
    "tzName": "America/Denver",
    "routeCount": 42,
    "searchText": "salt lake city international airport salt lake city united states slc kslc"
  },
  {
    "id": "3621",
    "name": "San Antonio International Airport",
    "city": "San Antonio",
    "country": "United States",
    "iata": "SAT",
    "icao": "KSAT",
    "lat": 29.533700942993164,
    "lon": -98.46980285644531,
    "altitudeFt": 809,
    "tzName": "America/Chicago",
    "routeCount": 31,
    "searchText": "san antonio international airport san antonio united states sat ksat"
  },
  {
    "id": "3731",
    "name": "San Diego International Airport",
    "city": "San Diego",
    "country": "United States",
    "iata": "SAN",
    "icao": "KSAN",
    "lat": 32.7336006165,
    "lon": -117.190002441,
    "altitudeFt": 17,
    "tzName": "America/Los_Angeles",
    "routeCount": 40,
    "searchText": "san diego international airport san diego united states san ksan"
  },
  {
    "id": "3469",
    "name": "San Francisco International Airport",
    "city": "San Francisco",
    "country": "United States",
    "iata": "SFO",
    "icao": "KSFO",
    "lat": 37.61899948120117,
    "lon": -122.375,
    "altitudeFt": 13,
    "tzName": "America/Los_Angeles",
    "routeCount": 67,
    "searchText": "san francisco international airport san francisco united states sfo ksfo"
  },